[
    {
        "city": "Jakarta",
        "lat": "-6.2146",
        "lng": "106.8451",
        "country": "Indonesia"
    },
    {
        "city": "Surabaya",
        "lat": "-7.2458",
        "lng": "112.7378",
        "country": "Indonesia"
    },
    {
        "city": "Bandung",
        "lat": "-6.9500",
        "lng": "107.5667",
        "country": "Indonesia"
    },
    {
        "city": "Bekasi",
        "lat": "-6.2333",
        "lng": "107.0000",
        "country": "Indonesia"
    },
    {
        "city": "Tangerang",
        "lat": "-6.1783",
        "lng": "106.6319",
        "country": "Indonesia"
    },
    {
        "city": "Medan",
        "lat": "3.6667",
        "lng": "98.6667",
        "country": "Indonesia"
    },
    {
        "city": "Makassar",
        "lat": "-5.1331",
        "lng": "119.4136",
        "country": "Indonesia"
    },
    {
        "city": "Semarang",
        "lat": "-6.9667",
        "lng": "110.4167",
        "country": "Indonesia"
    },
    {
        "city": "Palembang",
        "lat": "-2.9833",
        "lng": "104.7644",
        "country": "Indonesia"
    },
    {
        "city": "Cilacap",
        "lat": "-7.7167",
        "lng": "109.0170",
        "country": "Indonesia"
    },
    {
        "city": "Bandar Lampung",
        "lat": "-5.4294",
        "lng": "105.2625",
        "country": "Indonesia"
    },
    {
        "city": "Padang",
        "lat": "-0.9556",
        "lng": "100.3606",
        "country": "Indonesia"
    },
    {
        "city": "Pekanbaru",
        "lat": "0.5333",
        "lng": "101.4500",
        "country": "Indonesia"
    },
    {
        "city": "Denpasar",
        "lat": "-8.6667",
        "lng": "115.2167",
        "country": "Indonesia"
    },
    {
        "city": "Samarinda",
        "lat": "-0.5022",
        "lng": "117.1536",
        "country": "Indonesia"
    },
    {
        "city": "Banjarmasin",
        "lat": "-3.3333",
        "lng": "114.5833",
        "country": "Indonesia"
    },
    {
        "city": "Pontianak",
        "lat": "-0.0206",
        "lng": "109.3414",
        "country": "Indonesia"
    },
    {
        "city": "Serang",
        "lat": "-6.1200",
        "lng": "106.1503",
        "country": "Indonesia"
    },
    {
        "city": "Jambi",
        "lat": "-1.5900",
        "lng": "103.6100",
        "country": "Indonesia"
    },
    {
        "city": "Manado",
        "lat": "1.4931",
        "lng": "124.8413",
        "country": "Indonesia"
    },
    {
        "city": "Kupang",
        "lat": "-10.1633",
        "lng": "123.5778",
        "country": "Indonesia"
    },
    {
        "city": "Yogyakarta",
        "lat": "-7.8014",
        "lng": "110.3644",
        "country": "Indonesia"
    },
    {
        "city": "Jayapura",
        "lat": "-2.5333",
        "lng": "140.7167",
        "country": "Indonesia"
    },
    {
        "city": "Mataram",
        "lat": "-8.5833",
        "lng": "116.1167",
        "country": "Indonesia"
    },
    {
        "city": "Ambon",
        "lat": "-3.7050",
        "lng": "128.1700",
        "country": "Indonesia"
    },
    {
        "city": "Bengkulu",
        "lat": "-3.7956",
        "lng": "102.2592",
        "country": "Indonesia"
    },
    {
        "city": "Palu",
        "lat": "-0.8950",
        "lng": "119.8594",
        "country": "Indonesia"
    },
    {
        "city": "Kendari",
        "lat": "-3.9675",
        "lng": "122.5947",
        "country": "Indonesia"
    },
    {
        "city": "Jember",
        "lat": "-8.1727",
        "lng": "113.6873",
        "country": "Indonesia"
    },
    {
        "city": "Majene",
        "lat": "-3.5336",
        "lng": "118.9660",
        "country": "Indonesia"
    },
    {
        "city": "Palangkaraya",
        "lat": "-2.2100",
        "lng": "113.9200",
        "country": "Indonesia"
    },
    {
        "city": "Banda Aceh",
        "lat": "5.5500",
        "lng": "95.3175",
        "country": "Indonesia"
    },
    {
        "city": "Singaraja",
        "lat": "-8.1152",
        "lng": "115.0944",
        "country": "Indonesia"
    },
    {
        "city": "Tanjungpinang",
        "lat": "0.9188",
        "lng": "104.4554",
        "country": "Indonesia"
    },
    {
        "city": "Martapura",
        "lat": "-3.4135",
        "lng": "114.8365",
        "country": "Indonesia"
    },
    {
        "city": "Gorontalo",
        "lat": "0.5411",
        "lng": "123.0594",
        "country": "Indonesia"
    },
    {
        "city": "Prabumulih",
        "lat": "-3.4328",
        "lng": "104.2356",
        "country": "Indonesia"
    },
    {
        "city": "Banjar",
        "lat": "-7.3667",
        "lng": "108.5333",
        "country": "Indonesia"
    },
    {
        "city": "Pinrang",
        "lat": "-3.7857",
        "lng": "119.6522",
        "country": "Indonesia"
    },
    {
        "city": "Banyuwangi",
        "lat": "-8.1950",
        "lng": "114.3696",
        "country": "Indonesia"
    },
    {
        "city": "Gunungsitoli",
        "lat": "1.1167",
        "lng": "97.5667",
        "country": "Indonesia"
    },
    {
        "city": "Pageralam",
        "lat": "-4.0217",
        "lng": "103.2522",
        "country": "Indonesia"
    },
    {
        "city": "Pangkalpinang",
        "lat": "-2.1000",
        "lng": "106.1000",
        "country": "Indonesia"
    },
    {
        "city": "Indramayu",
        "lat": "-6.3356",
        "lng": "108.3190",
        "country": "Indonesia"
    },
    {
        "city": "Pati",
        "lat": "-6.7415",
        "lng": "111.0347",
        "country": "Indonesia"
    },
    {
        "city": "Raba",
        "lat": "-8.4614",
        "lng": "118.7470",
        "country": "Indonesia"
    },
    {
        "city": "Maumere",
        "lat": "-8.6189",
        "lng": "122.2123",
        "country": "Indonesia"
    },
    {
        "city": "Biak",
        "lat": "-1.1615",
        "lng": "136.0485",
        "country": "Indonesia"
    },
    {
        "city": "Tomohon",
        "lat": "1.3244",
        "lng": "124.8225",
        "country": "Indonesia"
    },
    {
        "city": "Sampit",
        "lat": "-2.5329",
        "lng": "112.9500",
        "country": "Indonesia"
    },
    {
        "city": "Pariaman",
        "lat": "-0.6261",
        "lng": "100.1206",
        "country": "Indonesia"
    },
    {
        "city": "Sumenep",
        "lat": "-7.0049",
        "lng": "113.8496",
        "country": "Indonesia"
    },
    {
        "city": "Watampone",
        "lat": "-4.5328",
        "lng": "120.3334",
        "country": "Indonesia"
    },
    {
        "city": "Ende",
        "lat": "-8.8333",
        "lng": "121.6500",
        "country": "Indonesia"
    },
    {
        "city": "Tuban",
        "lat": "-6.8995",
        "lng": "112.0500",
        "country": "Indonesia"
    },
    {
        "city": "Manokwari",
        "lat": "-0.8711",
        "lng": "134.0693",
        "country": "Indonesia"
    },
    {
        "city": "Lahat",
        "lat": "-3.8000",
        "lng": "103.5333",
        "country": "Indonesia"
    },
    {
        "city": "Tanjungpandan",
        "lat": "-2.7500",
        "lng": "107.6500",
        "country": "Indonesia"
    },
    {
        "city": "Ruteng",
        "lat": "-8.6118",
        "lng": "120.4698",
        "country": "Indonesia"
    },
    {
        "city": "Waingapu",
        "lat": "-9.6582",
        "lng": "120.2530",
        "country": "Indonesia"
    },
    {
        "city": "Luwuk",
        "lat": "-0.9396",
        "lng": "122.7900",
        "country": "Indonesia"
    },
    {
        "city": "Amahai",
        "lat": "-3.3281",
        "lng": "128.9405",
        "country": "Indonesia"
    },
    {
        "city": "Poso",
        "lat": "-1.3896",
        "lng": "120.7600",
        "country": "Indonesia"
    },
    {
        "city": "Nabire",
        "lat": "-3.3515",
        "lng": "135.5134",
        "country": "Indonesia"
    },
    {
        "city": "Rantepao",
        "lat": "-2.9690",
        "lng": "119.9000",
        "country": "Indonesia"
    },
    {
        "city": "Kotabumi",
        "lat": "-4.8333",
        "lng": "104.9000",
        "country": "Indonesia"
    },
    {
        "city": "Kuala Kapuas",
        "lat": "-3.0996",
        "lng": "114.3500",
        "country": "Indonesia"
    },
    {
        "city": "Praya",
        "lat": "-8.7223",
        "lng": "116.2923",
        "country": "Indonesia"
    },
    {
        "city": "Merauke",
        "lat": "-8.4932",
        "lng": "140.4018",
        "country": "Indonesia"
    },
    {
        "city": "Makale",
        "lat": "-3.0860",
        "lng": "119.8469",
        "country": "Indonesia"
    },
    {
        "city": "Tarutung",
        "lat": "2.0171",
        "lng": "98.9667",
        "country": "Indonesia"
    },
    {
        "city": "Bumiayu",
        "lat": "-8.0151",
        "lng": "112.6347",
        "country": "Indonesia"
    },
    {
        "city": "Gadang",
        "lat": "-8.0123",
        "lng": "112.6283",
        "country": "Indonesia"
    },
    {
        "city": "Kalisari",
        "lat": "-8.0234",
        "lng": "112.6483",
        "country": "Indonesia"
    },
    {
        "city": "Ploso",
        "lat": "-7.2522",
        "lng": "112.7633",
        "country": "Indonesia"
    },
    {
        "city": "Gubengairlangga",
        "lat": "-7.2729",
        "lng": "112.7573",
        "country": "Indonesia"
    },
    {
        "city": "Gubengkertajaya",
        "lat": "-7.2760",
        "lng": "112.7563",
        "country": "Indonesia"
    },
    {
        "city": "Panjangjiwo",
        "lat": "-7.3129",
        "lng": "112.7641",
        "country": "Indonesia"
    },
    {
        "city": "Kedungasem",
        "lat": "-7.3216",
        "lng": "112.7787",
        "country": "Indonesia"
    },
    {
        "city": "Wonorejo",
        "lat": "-7.3114",
        "lng": "112.7968",
        "country": "Indonesia"
    },
    {
        "city": "Mojo",
        "lat": "-7.2747",
        "lng": "112.7633",
        "country": "Indonesia"
    },
    {
        "city": "Medokanayu",
        "lat": "-7.3256",
        "lng": "112.7988",
        "country": "Indonesia"
    },
    {
        "city": "Prapen",
        "lat": "-7.3145",
        "lng": "112.7567",
        "country": "Indonesia"
    },
    {
        "city": "Jagirsidosermo",
        "lat": "-7.3068",
        "lng": "112.7545",
        "country": "Indonesia"
    },
    {
        "city": "Tenggilis Lama",
        "lat": "-7.3166",
        "lng": "112.7628",
        "country": "Indonesia"
    },
    {
        "city": "Tambakrejo",
        "lat": "-7.2472",
        "lng": "112.7558",
        "country": "Indonesia"
    },
    {
        "city": "Labansari",
        "lat": "-7.2597",
        "lng": "112.7913",
        "country": "Indonesia"
    },
    {
        "city": "Brongkalan",
        "lat": "-7.2575",
        "lng": "112.7674",
        "country": "Indonesia"
    },
    {
        "city": "Mulyorejo",
        "lat": "-7.2629",
        "lng": "112.7839",
        "country": "Indonesia"
    },
    {
        "city": "Semampir",
        "lat": "-7.3082",
        "lng": "112.7802",
        "country": "Indonesia"
    },
    {
        "city": "Pacarkeling",
        "lat": "-7.2580",
        "lng": "112.7581",
        "country": "Indonesia"
    },
    {
        "city": "Kenjeran",
        "lat": "-7.2252",
        "lng": "112.7708",
        "country": "Indonesia"
    },
    {
        "city": "Kepuh",
        "lat": "-8.0060",
        "lng": "112.6188",
        "country": "Indonesia"
    },
    {
        "city": "Gununganyar",
        "lat": "-7.3409",
        "lng": "112.7821",
        "country": "Indonesia"
    },
    {
        "city": "Gununganyartambak Tengah",
        "lat": "-7.3375",
        "lng": "112.8019",
        "country": "Indonesia"
    },
    {
        "city": "Selagalas",
        "lat": "-8.5811",
        "lng": "116.1436",
        "country": "Indonesia"
    },
    {
        "city": "Sayang Lauq",
        "lat": "-8.5694",
        "lng": "116.1325",
        "country": "Indonesia"
    },
    {
        "city": "Karangkecicang",
        "lat": "-8.5955",
        "lng": "116.1313",
        "country": "Indonesia"
    },
    {
        "city": "Sindu",
        "lat": "-8.5832",
        "lng": "116.1351",
        "country": "Indonesia"
    },
    {
        "city": "Babakan Barat",
        "lat": "-8.6022",
        "lng": "116.1371",
        "country": "Indonesia"
    },
    {
        "city": "Karangparwa",
        "lat": "-8.6034",
        "lng": "116.1271",
        "country": "Indonesia"
    },
    {
        "city": "Banjar Kayangan",
        "lat": "-8.6227",
        "lng": "115.2295",
        "country": "Indonesia"
    },
    {
        "city": "Banjar Batanpoh",
        "lat": "-8.6761",
        "lng": "115.2579",
        "country": "Indonesia"
    },
    {
        "city": "Karyadharma",
        "lat": "-8.7037",
        "lng": "115.2187",
        "country": "Indonesia"
    },
    {
        "city": "Banjar Medura",
        "lat": "-8.6926",
        "lng": "115.2533",
        "country": "Indonesia"
    },
    {
        "city": "Banjar Paangkelod",
        "lat": "-8.6238",
        "lng": "115.2400",
        "country": "Indonesia"
    },
    {
        "city": "Banjar Pemangkalan",
        "lat": "-8.6243",
        "lng": "115.2003",
        "country": "Indonesia"
    },
    {
        "city": "Banjar Kertasari",
        "lat": "-8.6219",
        "lng": "115.2099",
        "country": "Indonesia"
    },
    {
        "city": "Dajan Tangluk",
        "lat": "-8.6458",
        "lng": "115.2389",
        "country": "Indonesia"
    },
    {
        "city": "Banjar Taman",
        "lat": "-8.6818",
        "lng": "115.2564",
        "country": "Indonesia"
    },
    {
        "city": "Banjar Kertajiwa",
        "lat": "-8.6402",
        "lng": "115.2618",
        "country": "Indonesia"
    },
    {
        "city": "Banjar Batur",
        "lat": "-8.5997",
        "lng": "115.2135",
        "country": "Indonesia"
    },
    {
        "city": "Banjar Jabejero",
        "lat": "-8.5988",
        "lng": "115.2401",
        "country": "Indonesia"
    },
    {
        "city": "Dumandesa",
        "lat": "-8.5643",
        "lng": "116.1492",
        "country": "Indonesia"
    },
    {
        "city": "Kenali Asam",
        "lat": "-1.6646",
        "lng": "103.6204",
        "country": "Indonesia"
    },
    {
        "city": "Klampok",
        "lat": "-8.1299",
        "lng": "112.1617",
        "country": "Indonesia"
    },
    {
        "city": "Semampirbarat",
        "lat": "-7.3722",
        "lng": "112.7728",
        "country": "Indonesia"
    },
    {
        "city": "Kedungpeluk",
        "lat": "-7.4824",
        "lng": "112.7546",
        "country": "Indonesia"
    },
    {
        "city": "Buncitan",
        "lat": "-7.3961",
        "lng": "112.7813",
        "country": "Indonesia"
    },
    {
        "city": "Segorotambak",
        "lat": "-7.3667",
        "lng": "112.8075",
        "country": "Indonesia"
    },
    {
        "city": "Dukuhgisikcemandi",
        "lat": "-7.3899",
        "lng": "112.8066",
        "country": "Indonesia"
    },
    {
        "city": "Banjarkemuning",
        "lat": "-7.3867",
        "lng": "112.8085",
        "country": "Indonesia"
    },
    {
        "city": "Candisari",
        "lat": "-7.3960",
        "lng": "112.8080",
        "country": "Indonesia"
    },
    {
        "city": "Sedatigede",
        "lat": "-7.3768",
        "lng": "112.7623",
        "country": "Indonesia"
    },
    {
        "city": "Wadungasri",
        "lat": "-7.3451",
        "lng": "112.7683",
        "country": "Indonesia"
    },
    {
        "city": "Damarsi",
        "lat": "-7.4177",
        "lng": "112.7598",
        "country": "Indonesia"
    },
    {
        "city": "Kalanganyartambak",
        "lat": "-7.3995",
        "lng": "112.7938",
        "country": "Indonesia"
    },
    {
        "city": "Pepe",
        "lat": "-7.4024",
        "lng": "112.7692",
        "country": "Indonesia"
    },
    {
        "city": "Sedatiagung",
        "lat": "-7.3819",
        "lng": "112.7581",
        "country": "Indonesia"
    },
    {
        "city": "Dares",
        "lat": "-7.3690",
        "lng": "112.7624",
        "country": "Indonesia"
    },
    {
        "city": "Tambaksumur",
        "lat": "-7.3485",
        "lng": "112.7729",
        "country": "Indonesia"
    },
    {
        "city": "Berbek",
        "lat": "-7.3464",
        "lng": "112.7636",
        "country": "Indonesia"
    },
    {
        "city": "Sedati",
        "lat": "-7.3952",
        "lng": "112.7675",
        "country": "Indonesia"
    },
    {
        "city": "Tambaksawah",
        "lat": "-7.3601",
        "lng": "112.7778",
        "country": "Indonesia"
    },
    {
        "city": "Sawohan",
        "lat": "-7.4272",
        "lng": "112.7701",
        "country": "Indonesia"
    },
    {
        "city": "Wedoro",
        "lat": "-7.3511",
        "lng": "112.7514",
        "country": "Indonesia"
    },
    {
        "city": "Sidoarjo",
        "lat": "-7.4478",
        "lng": "112.7183",
        "country": "Indonesia"
    },
    {
        "city": "Dukuh Tengah",
        "lat": "-7.4160",
        "lng": "112.7538",
        "country": "Indonesia"
    },
    {
        "city": "Tambakoso",
        "lat": "-7.3460",
        "lng": "112.8039",
        "country": "Indonesia"
    },
    {
        "city": "Kedaton",
        "lat": "-5.3835",
        "lng": "105.2596",
        "country": "Indonesia"
    },
    {
        "city": "Panjang",
        "lat": "-5.4759",
        "lng": "105.3198",
        "country": "Indonesia"
    },
    {
        "city": "Gunungmuncang",
        "lat": "-7.3510",
        "lng": "108.2382",
        "country": "Indonesia"
    },
    {
        "city": "Cikondang",
        "lat": "-7.2963",
        "lng": "108.1689",
        "country": "Indonesia"
    },
    {
        "city": "Cibogor",
        "lat": "-7.3141",
        "lng": "108.2299",
        "country": "Indonesia"
    },
    {
        "city": "Jatiwangi",
        "lat": "-7.3785",
        "lng": "108.2580",
        "country": "Indonesia"
    },
    {
        "city": "Rancageneng Satu",
        "lat": "-7.3176",
        "lng": "108.1861",
        "country": "Indonesia"
    },
    {
        "city": "Panyarang",
        "lat": "-7.3472",
        "lng": "108.1873",
        "country": "Indonesia"
    },
    {
        "city": "Mancogeh",
        "lat": "-7.3087",
        "lng": "108.2172",
        "country": "Indonesia"
    },
    {
        "city": "Cibangun Tengah",
        "lat": "-7.3595",
        "lng": "108.2656",
        "country": "Indonesia"
    },
    {
        "city": "Gegernoong",
        "lat": "-7.3862",
        "lng": "108.2323",
        "country": "Indonesia"
    },
    {
        "city": "Sukamaju",
        "lat": "-7.4325",
        "lng": "108.1932",
        "country": "Indonesia"
    },
    {
        "city": "Condong",
        "lat": "-7.3447",
        "lng": "108.2591",
        "country": "Indonesia"
    },
    {
        "city": "Rancakukun",
        "lat": "-7.3447",
        "lng": "108.1744",
        "country": "Indonesia"
    },
    {
        "city": "Cibeureum",
        "lat": "-7.3871",
        "lng": "108.2349",
        "country": "Indonesia"
    },
    {
        "city": "Cibeureum",
        "lat": "-7.3552",
        "lng": "108.2693",
        "country": "Indonesia"
    },
    {
        "city": "Sengkol",
        "lat": "-7.3711",
        "lng": "108.2135",
        "country": "Indonesia"
    },
    {
        "city": "Tugusirna",
        "lat": "-7.3441",
        "lng": "108.2158",
        "country": "Indonesia"
    },
    {
        "city": "Cigantang Hilir",
        "lat": "-7.3606",
        "lng": "108.1900",
        "country": "Indonesia"
    },
    {
        "city": "Bantar",
        "lat": "-7.3231",
        "lng": "108.1897",
        "country": "Indonesia"
    },
    {
        "city": "Kahuripan",
        "lat": "-7.3471",
        "lng": "108.2281",
        "country": "Indonesia"
    },
    {
        "city": "Panututan",
        "lat": "-7.3410",
        "lng": "108.2088",
        "country": "Indonesia"
    },
    {
        "city": "Kebontiwu",
        "lat": "-7.3299",
        "lng": "108.2274",
        "country": "Indonesia"
    },
    {
        "city": "Pasanggrahan",
        "lat": "-7.3872",
        "lng": "108.2040",
        "country": "Indonesia"
    },
    {
        "city": "Kawalu",
        "lat": "-7.3817",
        "lng": "108.2082",
        "country": "Indonesia"
    },
    {
        "city": "Lemburwarung",
        "lat": "-7.3351",
        "lng": "108.2627",
        "country": "Indonesia"
    },
    {
        "city": "Gunungkoneng",
        "lat": "-7.3286",
        "lng": "108.2105",
        "country": "Indonesia"
    },
    {
        "city": "Argasari",
        "lat": "-7.3247",
        "lng": "108.2057",
        "country": "Indonesia"
    },
    {
        "city": "Kosangka",
        "lat": "-7.2918",
        "lng": "108.2060",
        "country": "Indonesia"
    },
    {
        "city": "Jati",
        "lat": "-7.3037",
        "lng": "108.2033",
        "country": "Indonesia"
    },
    {
        "city": "Tamansari",
        "lat": "-7.4230",
        "lng": "108.1931",
        "country": "Indonesia"
    },
    {
        "city": "Sambongpari",
        "lat": "-7.3462",
        "lng": "108.2050",
        "country": "Indonesia"
    },
    {
        "city": "Gunungbatu",
        "lat": "-7.3116",
        "lng": "108.2040",
        "country": "Indonesia"
    },
    {
        "city": "Sukasari",
        "lat": "-7.3258",
        "lng": "108.2322",
        "country": "Indonesia"
    },
    {
        "city": "Kotabaru",
        "lat": "-7.3546",
        "lng": "108.2604",
        "country": "Indonesia"
    },
    {
        "city": "Bungursari",
        "lat": "-7.3031",
        "lng": "108.1709",
        "country": "Indonesia"
    },
    {
        "city": "Bantargedang",
        "lat": "-7.3586",
        "lng": "108.2497",
        "country": "Indonesia"
    },
    {
        "city": "Bojongnangka",
        "lat": "-7.3318",
        "lng": "108.2498",
        "country": "Indonesia"
    },
    {
        "city": "Siluman",
        "lat": "-7.3421",
        "lng": "108.2365",
        "country": "Indonesia"
    },
    {
        "city": "Citamiang",
        "lat": "-7.4058",
        "lng": "108.1861",
        "country": "Indonesia"
    },
    {
        "city": "Sukagenah",
        "lat": "-7.3546",
        "lng": "108.2086",
        "country": "Indonesia"
    },
    {
        "city": "Awipari Tengah",
        "lat": "-7.3511",
        "lng": "108.2719",
        "country": "Indonesia"
    },
    {
        "city": "Tambir",
        "lat": "-7.3770",
        "lng": "108.1765",
        "country": "Indonesia"
    },
    {
        "city": "Simpang",
        "lat": "-7.2796",
        "lng": "108.1674",
        "country": "Indonesia"
    },
    {
        "city": "Pasirjaya",
        "lat": "-7.3251",
        "lng": "108.2681",
        "country": "Indonesia"
    },
    {
        "city": "Cilingga",
        "lat": "-7.3373",
        "lng": "108.1984",
        "country": "Indonesia"
    },
    {
        "city": "Pakemitan",
        "lat": "-7.2924",
        "lng": "108.1998",
        "country": "Indonesia"
    },
    {
        "city": "Gunungsubang",
        "lat": "-7.3716",
        "lng": "108.1949",
        "country": "Indonesia"
    },
    {
        "city": "Sukarindik",
        "lat": "-7.3011",
        "lng": "108.1869",
        "country": "Indonesia"
    },
    {
        "city": "Ampera",
        "lat": "-7.3226",
        "lng": "108.2108",
        "country": "Indonesia"
    },
    {
        "city": "Tawangsari",
        "lat": "-7.3227",
        "lng": "108.2206",
        "country": "Indonesia"
    },
    {
        "city": "Sindangpalay",
        "lat": "-7.2891",
        "lng": "108.1980",
        "country": "Indonesia"
    },
    {
        "city": "Yudanagara",
        "lat": "-7.3307",
        "lng": "108.2164",
        "country": "Indonesia"
    },
    {
        "city": "Rahayu Dua",
        "lat": "-7.3722",
        "lng": "108.2349",
        "country": "Indonesia"
    },
    {
        "city": "Sindanggalih",
        "lat": "-7.2769",
        "lng": "108.1730",
        "country": "Indonesia"
    },
    {
        "city": "Leuwidahu",
        "lat": "-7.3044",
        "lng": "108.2109",
        "country": "Indonesia"
    },
    {
        "city": "Sudimara",
        "lat": "-7.3626",
        "lng": "108.1774",
        "country": "Indonesia"
    },
    {
        "city": "Cianjur Kidul",
        "lat": "-7.3911",
        "lng": "108.2175",
        "country": "Indonesia"
    },
    {
        "city": "Saripin",
        "lat": "-7.3325",
        "lng": "108.2455",
        "country": "Indonesia"
    },
    {
        "city": "Margalaksana",
        "lat": "-7.3444",
        "lng": "108.2240",
        "country": "Indonesia"
    },
    {
        "city": "Nagarasari",
        "lat": "-7.3003",
        "lng": "108.2213",
        "country": "Indonesia"
    },
    {
        "city": "Kadupandak",
        "lat": "-7.3717",
        "lng": "108.2525",
        "country": "Indonesia"
    },
    {
        "city": "Nyemplong",
        "lat": "-7.4180",
        "lng": "108.2474",
        "country": "Indonesia"
    },
    {
        "city": "Cikalang",
        "lat": "-7.3390",
        "lng": "108.2306",
        "country": "Indonesia"
    },
    {
        "city": "Cibeuti",
        "lat": "-7.3862",
        "lng": "108.1889",
        "country": "Indonesia"
    },
    {
        "city": "Awilega",
        "lat": "-7.3924",
        "lng": "108.2093",
        "country": "Indonesia"
    },
    {
        "city": "Dadaha",
        "lat": "-7.3343",
        "lng": "108.2221",
        "country": "Indonesia"
    },
    {
        "city": "Sukamaju Kidul",
        "lat": "-7.2831",
        "lng": "108.1867",
        "country": "Indonesia"
    },
    {
        "city": "Tigaraksa",
        "lat": "-6.2281",
        "lng": "106.5139",
        "country": "Indonesia"
    },
    {
        "city": "Gunungpeundeuy",
        "lat": "-7.3231",
        "lng": "108.2514",
        "country": "Indonesia"
    },
    {
        "city": "Parakanhonje Wetan",
        "lat": "-7.2801",
        "lng": "108.1944",
        "country": "Indonesia"
    },
    {
        "city": "Kebonsari",
        "lat": "-8.0176",
        "lng": "112.6191",
        "country": "Indonesia"
    },
    {
        "city": "Ciruas",
        "lat": "-6.1250",
        "lng": "106.2328",
        "country": "Indonesia"
    },
    {
        "city": "Karangdawa Barat",
        "lat": "-6.1318",
        "lng": "106.1109",
        "country": "Indonesia"
    },
    {
        "city": "Padukan",
        "lat": "-6.1495",
        "lng": "106.1043",
        "country": "Indonesia"
    },
    {
        "city": "Pekijing",
        "lat": "-6.1234",
        "lng": "106.1033",
        "country": "Indonesia"
    },
    {
        "city": "Bandung",
        "lat": "-7.3993",
        "lng": "108.2607",
        "country": "Indonesia"
    },
    {
        "city": "Cikarang",
        "lat": "-6.3640",
        "lng": "107.1780",
        "country": "Indonesia"
    },
    {
        "city": "Batang",
        "lat": "-6.9078",
        "lng": "109.7303",
        "country": "Indonesia"
    },
    {
        "city": "Tambakbaya",
        "lat": "-7.4034",
        "lng": "108.1786",
        "country": "Indonesia"
    },
    {
        "city": "Tabun",
        "lat": "-10.2175",
        "lng": "123.5751",
        "country": "Indonesia"
    },
    {
        "city": "Manutapen",
        "lat": "-10.1766",
        "lng": "123.5764",
        "country": "Indonesia"
    },
    {
        "city": "Oebufu",
        "lat": "-10.1786",
        "lng": "123.6210",
        "country": "Indonesia"
    },
    {
        "city": "Nunbaunsabu",
        "lat": "-10.1724",
        "lng": "123.5662",
        "country": "Indonesia"
    },
    {
        "city": "Airsagu",
        "lat": "-10.1999",
        "lng": "123.5800",
        "country": "Indonesia"
    },
    {
        "city": "Oetete",
        "lat": "-10.1650",
        "lng": "123.5873",
        "country": "Indonesia"
    },
    {
        "city": "Fatufeto",
        "lat": "-10.1635",
        "lng": "123.5751",
        "country": "Indonesia"
    },
    {
        "city": "Todekisar",
        "lat": "-10.1577",
        "lng": "123.5842",
        "country": "Indonesia"
    },
    {
        "city": "Naimata",
        "lat": "-10.1841",
        "lng": "123.6405",
        "country": "Indonesia"
    },
    {
        "city": "Manulai",
        "lat": "-10.2327",
        "lng": "123.5660",
        "country": "Indonesia"
    },
    {
        "city": "Nunutba",
        "lat": "-10.2183",
        "lng": "123.6274",
        "country": "Indonesia"
    },
    {
        "city": "Nunbaundelha",
        "lat": "-10.1720",
        "lng": "123.5698",
        "country": "Indonesia"
    },
    {
        "city": "Fontein",
        "lat": "-10.1661",
        "lng": "123.5822",
        "country": "Indonesia"
    },
    {
        "city": "Merdeka",
        "lat": "-10.1620",
        "lng": "123.5865",
        "country": "Indonesia"
    },
    {
        "city": "Oebobo",
        "lat": "-10.1678",
        "lng": "123.5992",
        "country": "Indonesia"
    },
    {
        "city": "Kuanino",
        "lat": "-10.1709",
        "lng": "123.5898",
        "country": "Indonesia"
    },
    {
        "city": "Nunhila",
        "lat": "-10.1675",
        "lng": "123.5714",
        "country": "Indonesia"
    },
    {
        "city": "Namosain",
        "lat": "-10.1733",
        "lng": "123.5585",
        "country": "Indonesia"
    },
    {
        "city": "Kelapalima",
        "lat": "-10.1499",
        "lng": "123.6194",
        "country": "Indonesia"
    },
    {
        "city": "Airnona",
        "lat": "-10.1814",
        "lng": "123.5847",
        "country": "Indonesia"
    },
    {
        "city": "Luti",
        "lat": "-10.2545",
        "lng": "123.6040",
        "country": "Indonesia"
    },
    {
        "city": "Bonipoi",
        "lat": "-10.1617",
        "lng": "123.5803",
        "country": "Indonesia"
    },
    {
        "city": "Kolhua",
        "lat": "-10.2139",
        "lng": "123.6425",
        "country": "Indonesia"
    },
    {
        "city": "Naikoten Dua",
        "lat": "-10.1729",
        "lng": "123.5980",
        "country": "Indonesia"
    },
    {
        "city": "Alak",
        "lat": "-10.1973",
        "lng": "123.5334",
        "country": "Indonesia"
    },
    {
        "city": "Mantasi",
        "lat": "-10.1733",
        "lng": "123.5804",
        "country": "Indonesia"
    },
    {
        "city": "Maulafa",
        "lat": "-10.1861",
        "lng": "123.6227",
        "country": "Indonesia"
    },
    {
        "city": "Bakunase",
        "lat": "-10.1860",
        "lng": "123.5864",
        "country": "Indonesia"
    },
    {
        "city": "Oeba",
        "lat": "-10.1594",
        "lng": "123.5918",
        "country": "Indonesia"
    },
    {
        "city": "Lai Lai Bisi Kopan",
        "lat": "-10.1628",
        "lng": "123.5781",
        "country": "Indonesia"
    },
    {
        "city": "Solor",
        "lat": "-10.1609",
        "lng": "123.5819",
        "country": "Indonesia"
    },
    {
        "city": "Oepura",
        "lat": "-10.1890",
        "lng": "123.6076",
        "country": "Indonesia"
    },
    {
        "city": "Fatukoa",
        "lat": "-10.2315",
        "lng": "123.6069",
        "country": "Indonesia"
    },
    {
        "city": "Bonik",
        "lat": "-10.2016",
        "lng": "123.6056",
        "country": "Indonesia"
    },
    {
        "city": "Liliba",
        "lat": "-10.1733",
        "lng": "123.6374",
        "country": "Indonesia"
    },
    {
        "city": "Pasirpanjang",
        "lat": "-10.1561",
        "lng": "123.6021",
        "country": "Indonesia"
    },
    {
        "city": "Airmata",
        "lat": "-10.1663",
        "lng": "123.5777",
        "country": "Indonesia"
    },
    {
        "city": "Oesapa",
        "lat": "-10.1485",
        "lng": "123.6470",
        "country": "Indonesia"
    },
    {
        "city": "Pasagipasir",
        "lat": "-6.1821",
        "lng": "106.1212",
        "country": "Indonesia"
    },
    {
        "city": "Bojong",
        "lat": "-6.1618",
        "lng": "106.0899",
        "country": "Indonesia"
    },
    {
        "city": "Curug",
        "lat": "-5.9813",
        "lng": "106.0193",
        "country": "Indonesia"
    },
    {
        "city": "Kubangkepuh",
        "lat": "-5.8994",
        "lng": "106.0284",
        "country": "Indonesia"
    },
    {
        "city": "Sleman",
        "lat": "-7.7156",
        "lng": "110.3556",
        "country": "Indonesia"
    },
    {
        "city": "Gunungangka",
        "lat": "-7.3431",
        "lng": "108.1643",
        "country": "Indonesia"
    },
    {
        "city": "Pasiripis",
        "lat": "-7.3459",
        "lng": "108.1656",
        "country": "Indonesia"
    },
    {
        "city": "Sumber",
        "lat": "-6.7603",
        "lng": "108.4831",
        "country": "Indonesia"
    },
    {
        "city": "Bantul",
        "lat": "-7.8881",
        "lng": "110.3289",
        "country": "Indonesia"
    },
    {
        "city": "Sofifi",
        "lat": "0.7373",
        "lng": "127.5588",
        "country": "Indonesia"
    },
    {
        "city": "Mamuju",
        "lat": "-2.6806",
        "lng": "118.8861",
        "country": "Indonesia"
    },
    {
        "city": "Tanjung Selor",
        "lat": "2.8375",
        "lng": "117.3653",
        "country": "Indonesia"
    },
    {
        "city": "Pontianak Barat",
        "lat": "-0.0189",
        "lng": "109.3187",
        "country": "Indonesia"
    },
    {
        "city": "Kertasari",
        "lat": "-7.3461",
        "lng": "108.2814",
        "country": "Indonesia"
    },
    {
        "city": "Sungai Raya",
        "lat": "-0.1269",
        "lng": "109.4039",
        "country": "Indonesia"
    },
    {
        "city": "Kudus",
        "lat": "-6.8048",
        "lng": "110.8405",
        "country": "Indonesia"
    },
    {
        "city": "Kompa Satu",
        "lat": "-6.5822",
        "lng": "106.5061",
        "country": "Indonesia"
    },
    {
        "city": "Cileuksa",
        "lat": "-6.6032",
        "lng": "106.4448",
        "country": "Indonesia"
    },
    {
        "city": "Cisarua",
        "lat": "-6.6527",
        "lng": "106.4710",
        "country": "Indonesia"
    },
    {
        "city": "Lebakhuni",
        "lat": "-6.5179",
        "lng": "106.4631",
        "country": "Indonesia"
    },
    {
        "city": "Cibadak",
        "lat": "-6.5816",
        "lng": "106.4846",
        "country": "Indonesia"
    },
    {
        "city": "Garisul",
        "lat": "-6.5055",
        "lng": "106.4959",
        "country": "Indonesia"
    },
    {
        "city": "Cibinong",
        "lat": "-6.4817",
        "lng": "106.8542",
        "country": "Indonesia"
    },
    {
        "city": "Pasirmadang",
        "lat": "-6.5983",
        "lng": "106.4782",
        "country": "Indonesia"
    },
    {
        "city": "Kadaka",
        "lat": "-6.5190",
        "lng": "106.4998",
        "country": "Indonesia"
    },
    {
        "city": "Sidoger Lebak",
        "lat": "-6.5928",
        "lng": "106.5131",
        "country": "Indonesia"
    },
    {
        "city": "Cipeundeuy",
        "lat": "-6.6569",
        "lng": "106.5011",
        "country": "Indonesia"
    },
    {
        "city": "Pangradin Satu",
        "lat": "-6.5084",
        "lng": "106.4773",
        "country": "Indonesia"
    },
    {
        "city": "Cipatat",
        "lat": "-6.6223",
        "lng": "106.4955",
        "country": "Indonesia"
    },
    {
        "city": "Pulau Pramuka",
        "lat": "-5.7458",
        "lng": "106.6139",
        "country": "Indonesia"
    },
    {
        "city": "Suwawa",
        "lat": "0.5325",
        "lng": "123.1469",
        "country": "Indonesia"
    },
    {
        "city": "Bualu",
        "lat": "-8.7960",
        "lng": "115.2172",
        "country": "Indonesia"
    },
    {
        "city": "Banjar Danginpangkung",
        "lat": "-8.5754",
        "lng": "115.1645",
        "country": "Indonesia"
    },
    {
        "city": "Pecatu",
        "lat": "-8.8323",
        "lng": "115.1247",
        "country": "Indonesia"
    },
    {
        "city": "Pegongan",
        "lat": "-8.4855",
        "lng": "115.2265",
        "country": "Indonesia"
    },
    {
        "city": "Banjar Kaja",
        "lat": "-8.6097",
        "lng": "115.1723",
        "country": "Indonesia"
    },
    {
        "city": "Banjar Keraman",
        "lat": "-8.5280",
        "lng": "115.2117",
        "country": "Indonesia"
    },
    {
        "city": "Pemijian",
        "lat": "-8.4499",
        "lng": "115.2193",
        "country": "Indonesia"
    },
    {
        "city": "Banjar Lebahsari",
        "lat": "-8.5453",
        "lng": "115.1755",
        "country": "Indonesia"
    },
    {
        "city": "Banjar Mambalkajanan",
        "lat": "-8.5506",
        "lng": "115.2234",
        "country": "Indonesia"
    },
    {
        "city": "Banjar Parekan",
        "lat": "-8.5763",
        "lng": "115.2164",
        "country": "Indonesia"
    },
    {
        "city": "Banjar Badung",
        "lat": "-8.5816",
        "lng": "115.1884",
        "country": "Indonesia"
    },
    {
        "city": "Banjar Desa",
        "lat": "-8.5825",
        "lng": "115.2404",
        "country": "Indonesia"
    },
    {
        "city": "Banjar Kembangsari",
        "lat": "-8.5072",
        "lng": "115.2116",
        "country": "Indonesia"
    },
    {
        "city": "Banjar Pelaga",
        "lat": "-8.2928",
        "lng": "115.2252",
        "country": "Indonesia"
    },
    {
        "city": "Banjar Sedang",
        "lat": "-8.5707",
        "lng": "115.2389",
        "country": "Indonesia"
    },
    {
        "city": "Pangsan",
        "lat": "-8.4146",
        "lng": "115.2209",
        "country": "Indonesia"
    },
    {
        "city": "Banjar Cemenggon",
        "lat": "-8.5391",
        "lng": "115.1995",
        "country": "Indonesia"
    },
    {
        "city": "Banjar Ulapan Satu",
        "lat": "-8.5098",
        "lng": "115.2144",
        "country": "Indonesia"
    },
    {
        "city": "Banjar Badung Tengah",
        "lat": "-8.5067",
        "lng": "115.1994",
        "country": "Indonesia"
    },
    {
        "city": "Kangin",
        "lat": "-8.8334",
        "lng": "115.1269",
        "country": "Indonesia"
    },
    {
        "city": "Banjar Gunungpande",
        "lat": "-8.6160",
        "lng": "115.1448",
        "country": "Indonesia"
    },
    {
        "city": "Banjar Pekenjelodan",
        "lat": "-8.5752",
        "lng": "115.1777",
        "country": "Indonesia"
    },
    {
        "city": "Banjar Karangsuling",
        "lat": "-8.5998",
        "lng": "115.1952",
        "country": "Indonesia"
    },
    {
        "city": "Banjar Kerobokan",
        "lat": "-8.6185",
        "lng": "115.1276",
        "country": "Indonesia"
    },
    {
        "city": "Jabajero",
        "lat": "-8.7277",
        "lng": "115.1750",
        "country": "Indonesia"
    },
    {
        "city": "Dajanpeken",
        "lat": "-8.4696",
        "lng": "115.1837",
        "country": "Indonesia"
    },
    {
        "city": "Banjar Kedua",
        "lat": "-8.5184",
        "lng": "115.1865",
        "country": "Indonesia"
    },
    {
        "city": "Banjar Cice",
        "lat": "-8.5900",
        "lng": "115.1707",
        "country": "Indonesia"
    },
    {
        "city": "Kelanabian",
        "lat": "-8.7519",
        "lng": "115.1769",
        "country": "Indonesia"
    },
    {
        "city": "Banjar Tengah",
        "lat": "-8.5653",
        "lng": "115.2196",
        "country": "Indonesia"
    },
    {
        "city": "Banjar Tengah",
        "lat": "-8.4985",
        "lng": "115.1942",
        "country": "Indonesia"
    },
    {
        "city": "Banjar Bucu",
        "lat": "-8.5857",
        "lng": "115.2061",
        "country": "Indonesia"
    },
    {
        "city": "Banjar Sempidi",
        "lat": "-8.5233",
        "lng": "115.2057",
        "country": "Indonesia"
    },
    {
        "city": "Banjar Serangan",
        "lat": "-8.5435",
        "lng": "115.1692",
        "country": "Indonesia"
    },
    {
        "city": "Mangupura",
        "lat": "-8.5439",
        "lng": "115.1700",
        "country": "Indonesia"
    },
    {
        "city": "Brahmana",
        "lat": "-8.4867",
        "lng": "115.2101",
        "country": "Indonesia"
    },
    {
        "city": "Banjar Jumbayah",
        "lat": "-8.5649",
        "lng": "115.1655",
        "country": "Indonesia"
    },
    {
        "city": "Banjar Teguan",
        "lat": "-8.5057",
        "lng": "115.2299",
        "country": "Indonesia"
    },
    {
        "city": "Klaten",
        "lat": "-7.7058",
        "lng": "110.6064",
        "country": "Indonesia"
    },
    {
        "city": "Petang",
        "lat": "-8.3963",
        "lng": "115.2187",
        "country": "Indonesia"
    },
    {
        "city": "Lampuuk",
        "lat": "5.5710",
        "lng": "95.3895",
        "country": "Indonesia"
    },
    {
        "city": "Lambaro",
        "lat": "5.5558",
        "lng": "95.3438",
        "country": "Indonesia"
    },
    {
        "city": "Mata Ie",
        "lat": "5.5278",
        "lng": "95.3347",
        "country": "Indonesia"
    },
    {
        "city": "Tungoo",
        "lat": "0.7469",
        "lng": "124.2611",
        "country": "Indonesia"
    },
    {
        "city": "Sukoharjo",
        "lat": "-7.6725",
        "lng": "110.8381",
        "country": "Indonesia"
    },
    {
        "city": "Harapankarya",
        "lat": "-3.9893",
        "lng": "119.6438",
        "country": "Indonesia"
    },
    {
        "city": "Santosa",
        "lat": "-7.2537",
        "lng": "107.6388",
        "country": "Indonesia"
    },
    {
        "city": "Ciburial",
        "lat": "-7.0396",
        "lng": "107.9077",
        "country": "Indonesia"
    },
    {
        "city": "Margabakti",
        "lat": "-7.0137",
        "lng": "107.8771",
        "country": "Indonesia"
    },
    {
        "city": "Cigorowong Kidul",
        "lat": "-7.0220",
        "lng": "107.8845",
        "country": "Indonesia"
    },
    {
        "city": "Soreang",
        "lat": "-7.0331",
        "lng": "107.5183",
        "country": "Indonesia"
    },
    {
        "city": "Negla",
        "lat": "-7.2733",
        "lng": "107.6757",
        "country": "Indonesia"
    },
    {
        "city": "Gerempay",
        "lat": "-7.3379",
        "lng": "108.2882",
        "country": "Indonesia"
    },
    {
        "city": "Lubukbergalung",
        "lat": "-0.9608",
        "lng": "100.4001",
        "country": "Indonesia"
    },
    {
        "city": "Rajapeni",
        "lat": "-7.2841",
        "lng": "108.2148",
        "country": "Indonesia"
    },
    {
        "city": "Teluk Binjai",
        "lat": "1.6720",
        "lng": "101.4497",
        "country": "Indonesia"
    },
    {
        "city": "Bagan Besar",
        "lat": "1.5818",
        "lng": "101.3867",
        "country": "Indonesia"
    },
    {
        "city": "Rimba Sekampung",
        "lat": "1.6756",
        "lng": "101.4375",
        "country": "Indonesia"
    },
    {
        "city": "Kampung Laksamana",
        "lat": "1.6793",
        "lng": "101.4389",
        "country": "Indonesia"
    },
    {
        "city": "Buluh Kasap",
        "lat": "1.6808",
        "lng": "101.4561",
        "country": "Indonesia"
    },
    {
        "city": "Tanjung Palas",
        "lat": "1.6785",
        "lng": "101.4701",
        "country": "Indonesia"
    },
    {
        "city": "Dumai Kota",
        "lat": "1.6782",
        "lng": "101.4436",
        "country": "Indonesia"
    },
    {
        "city": "Ciaro",
        "lat": "-7.0384",
        "lng": "107.9201",
        "country": "Indonesia"
    },
    {
        "city": "Pandan",
        "lat": "1.6838",
        "lng": "98.8220",
        "country": "Indonesia"
    },
    {
        "city": "Banjar Belok",
        "lat": "-8.2858",
        "lng": "115.2428",
        "country": "Indonesia"
    },
    {
        "city": "Jambula",
        "lat": "0.7578",
        "lng": "127.3183",
        "country": "Indonesia"
    },
    {
        "city": "Basiong",
        "lat": "0.7729",
        "lng": "127.3748",
        "country": "Indonesia"
    },
    {
        "city": "Passo",
        "lat": "-3.6301",
        "lng": "128.2524",
        "country": "Indonesia"
    },
    {
        "city": "Amahusu",
        "lat": "-3.7253",
        "lng": "128.1471",
        "country": "Indonesia"
    },
    {
        "city": "Sukasirna",
        "lat": "-7.3655",
        "lng": "108.2778",
        "country": "Indonesia"
    },
    {
        "city": "Sukahurip",
        "lat": "-7.3521",
        "lng": "108.6363",
        "country": "Indonesia"
    },
    {
        "city": "Cimanggu",
        "lat": "-7.4160",
        "lng": "108.5676",
        "country": "Indonesia"
    },
    {
        "city": "Hegarsari",
        "lat": "-7.3859",
        "lng": "108.5394",
        "country": "Indonesia"
    },
    {
        "city": "Randegan",
        "lat": "-7.3522",
        "lng": "108.5712",
        "country": "Indonesia"
    },
    {
        "city": "Langkaplancar",
        "lat": "-7.3777",
        "lng": "108.6141",
        "country": "Indonesia"
    },
    {
        "city": "Cibeureum",
        "lat": "-7.3707",
        "lng": "108.5087",
        "country": "Indonesia"
    },
    {
        "city": "Pangasinan",
        "lat": "-7.4066",
        "lng": "108.5292",
        "country": "Indonesia"
    },
    {
        "city": "Bojong",
        "lat": "-7.3858",
        "lng": "108.4941",
        "country": "Indonesia"
    },
    {
        "city": "Babakan",
        "lat": "-7.3657",
        "lng": "108.6405",
        "country": "Indonesia"
    },
    {
        "city": "Ciaren",
        "lat": "-7.3680",
        "lng": "108.5565",
        "country": "Indonesia"
    },
    {
        "city": "Cipadung Timur",
        "lat": "-7.3594",
        "lng": "108.5414",
        "country": "Indonesia"
    },
    {
        "city": "Balokang",
        "lat": "-7.3665",
        "lng": "108.4852",
        "country": "Indonesia"
    },
    {
        "city": "Sinargalih",
        "lat": "-7.3574",
        "lng": "108.6382",
        "country": "Indonesia"
    },
    {
        "city": "Randegan Dua",
        "lat": "-7.3556",
        "lng": "108.5683",
        "country": "Indonesia"
    },
    {
        "city": "Rancakole",
        "lat": "-7.3715",
        "lng": "108.5891",
        "country": "Indonesia"
    },
    {
        "city": "Babakansari",
        "lat": "-7.3699",
        "lng": "108.5609",
        "country": "Indonesia"
    },
    {
        "city": "Warungbuah",
        "lat": "-7.3858",
        "lng": "108.5044",
        "country": "Indonesia"
    },
    {
        "city": "Sukarame",
        "lat": "-7.3779",
        "lng": "108.5375",
        "country": "Indonesia"
    },
    {
        "city": "Sindanggalih",
        "lat": "-7.3615",
        "lng": "108.6238",
        "country": "Indonesia"
    },
    {
        "city": "Cikabuyutan Barat",
        "lat": "-7.3785",
        "lng": "108.5422",
        "country": "Indonesia"
    },
    {
        "city": "Banjar Pande",
        "lat": "-8.5126",
        "lng": "115.2399",
        "country": "Indonesia"
    },
    {
        "city": "Margasari",
        "lat": "-7.0948",
        "lng": "109.0250",
        "country": "Indonesia"
    },
    {
        "city": "Slawi",
        "lat": "-6.9816",
        "lng": "109.1407",
        "country": "Indonesia"
    },
    {
        "city": "Banjar Sayanbaleran",
        "lat": "-8.5060",
        "lng": "115.1804",
        "country": "Indonesia"
    },
    {
        "city": "Banjar Sandinggianyar",
        "lat": "-8.4629",
        "lng": "115.2992",
        "country": "Indonesia"
    },
    {
        "city": "Banjar Tebongkang",
        "lat": "-8.5285",
        "lng": "115.2431",
        "country": "Indonesia"
    },
    {
        "city": "Banjar Triwangsakelusa",
        "lat": "-8.4406",
        "lng": "115.2582",
        "country": "Indonesia"
    },
    {
        "city": "Bayad",
        "lat": "-8.4472",
        "lng": "115.2415",
        "country": "Indonesia"
    },
    {
        "city": "Melinggih",
        "lat": "-8.4313",
        "lng": "115.2447",
        "country": "Indonesia"
    },
    {
        "city": "Banjar Mulung",
        "lat": "-8.4786",
        "lng": "115.3107",
        "country": "Indonesia"
    },
    {
        "city": "Buahan",
        "lat": "-8.3948",
        "lng": "115.2367",
        "country": "Indonesia"
    },
    {
        "city": "Banjar Bukian",
        "lat": "-8.4069",
        "lng": "115.2651",
        "country": "Indonesia"
    },
    {
        "city": "Banjar Kedisan Kelod",
        "lat": "-8.4222",
        "lng": "115.2924",
        "country": "Indonesia"
    },
    {
        "city": "Banjar Ubud",
        "lat": "-8.4761",
        "lng": "115.2932",
        "country": "Indonesia"
    },
    {
        "city": "Gianyar",
        "lat": "-8.5435",
        "lng": "115.3272",
        "country": "Indonesia"
    },
    {
        "city": "Banjar Pasekan",
        "lat": "-8.6329",
        "lng": "115.2840",
        "country": "Indonesia"
    },
    {
        "city": "Banjar Petuludesa",
        "lat": "-8.4869",
        "lng": "115.2742",
        "country": "Indonesia"
    },
    {
        "city": "Banjar Pesalakan",
        "lat": "-8.4812",
        "lng": "115.3025",
        "country": "Indonesia"
    },
    {
        "city": "Banjar Madangan Kaja",
        "lat": "-8.4750",
        "lng": "115.3238",
        "country": "Indonesia"
    },
    {
        "city": "Banjar Tegallalang",
        "lat": "-8.4366",
        "lng": "115.2792",
        "country": "Indonesia"
    },
    {
        "city": "Banjar Triwangsakeliki",
        "lat": "-8.4520",
        "lng": "115.2620",
        "country": "Indonesia"
    },
    {
        "city": "Banjar Manukayaanyar",
        "lat": "-8.4083",
        "lng": "115.3124",
        "country": "Indonesia"
    },
    {
        "city": "Banjar Dujung Kaja",
        "lat": "-8.4008",
        "lng": "115.2886",
        "country": "Indonesia"
    },
    {
        "city": "Banjar Ponggang",
        "lat": "-8.3893",
        "lng": "115.2605",
        "country": "Indonesia"
    },
    {
        "city": "Banjar Kerta",
        "lat": "-8.3384",
        "lng": "115.2868",
        "country": "Indonesia"
    },
    {
        "city": "Banjar Tengah",
        "lat": "-8.4289",
        "lng": "115.3065",
        "country": "Indonesia"
    },
    {
        "city": "Bunutan",
        "lat": "-8.4649",
        "lng": "115.2480",
        "country": "Indonesia"
    },
    {
        "city": "Banjar Taro Kelod",
        "lat": "-8.3849",
        "lng": "115.2794",
        "country": "Indonesia"
    },
    {
        "city": "Cilangkap",
        "lat": "-7.4041",
        "lng": "108.4981",
        "country": "Indonesia"
    },
    {
        "city": "Bandar Seri Bentan",
        "lat": "1.0542",
        "lng": "104.4800",
        "country": "Indonesia"
    },
    {
        "city": "Sekupang",
        "lat": "1.1272",
        "lng": "103.9267",
        "country": "Indonesia"
    },
    {
        "city": "Belakangpadang",
        "lat": "1.1496",
        "lng": "103.8916",
        "country": "Indonesia"
    },
    {
        "city": "Cimawate",
        "lat": "-7.4202",
        "lng": "108.1822",
        "country": "Indonesia"
    },
    {
        "city": "Cilisung",
        "lat": "-7.4165",
        "lng": "108.5124",
        "country": "Indonesia"
    },
    {
        "city": "Karawang",
        "lat": "-6.3033",
        "lng": "107.3056",
        "country": "Indonesia"
    },
    {
        "city": "Nagrog",
        "lat": "-7.0347",
        "lng": "107.2297",
        "country": "Indonesia"
    },
    {
        "city": "Tegallega",
        "lat": "-7.0463",
        "lng": "107.2224",
        "country": "Indonesia"
    },
    {
        "city": "Banjar Petak",
        "lat": "-8.4448",
        "lng": "115.3195",
        "country": "Indonesia"
    },
    {
        "city": "Demak",
        "lat": "-6.8909",
        "lng": "110.6396",
        "country": "Indonesia"
    },
    {
        "city": "Tinggarwangi",
        "lat": "-7.5239",
        "lng": "109.1228",
        "country": "Indonesia"
    },
    {
        "city": "Kebasen",
        "lat": "-7.5333",
        "lng": "109.1997",
        "country": "Indonesia"
    },
    {
        "city": "Menganti",
        "lat": "-7.5492",
        "lng": "109.1564",
        "country": "Indonesia"
    },
    {
        "city": "Tipar",
        "lat": "-7.5053",
        "lng": "109.1481",
        "country": "Indonesia"
    },
    {
        "city": "Rawaheng",
        "lat": "-7.5411",
        "lng": "109.0467",
        "country": "Indonesia"
    },
    {
        "city": "Garbi",
        "lat": "-7.5022",
        "lng": "109.2147",
        "country": "Indonesia"
    },
    {
        "city": "Purwokerto",
        "lat": "-7.4214",
        "lng": "109.2344",
        "country": "Indonesia"
    },
    {
        "city": "Losari",
        "lat": "-7.5578",
        "lng": "109.1547",
        "country": "Indonesia"
    },
    {
        "city": "Sangkalputung",
        "lat": "-7.5061",
        "lng": "109.0625",
        "country": "Indonesia"
    },
    {
        "city": "Papringan",
        "lat": "-7.5039",
        "lng": "109.2483",
        "country": "Indonesia"
    },
    {
        "city": "Gambarjati",
        "lat": "-7.5369",
        "lng": "109.1289",
        "country": "Indonesia"
    },
    {
        "city": "Pekuncen",
        "lat": "-7.5597",
        "lng": "109.1186",
        "country": "Indonesia"
    },
    {
        "city": "Karanglewas",
        "lat": "-7.5536",
        "lng": "109.1389",
        "country": "Indonesia"
    },
    {
        "city": "Binangun",
        "lat": "-7.5375",
        "lng": "109.2469",
        "country": "Indonesia"
    },
    {
        "city": "Klapagading",
        "lat": "-7.5186",
        "lng": "109.0694",
        "country": "Indonesia"
    },
    {
        "city": "Kaliduren",
        "lat": "-7.5603",
        "lng": "109.0981",
        "country": "Indonesia"
    },
    {
        "city": "Gerduren",
        "lat": "-7.5133",
        "lng": "109.0928",
        "country": "Indonesia"
    },
    {
        "city": "Sudikampir",
        "lat": "-7.5128",
        "lng": "109.0272",
        "country": "Indonesia"
    },
    {
        "city": "Bantar Tengah",
        "lat": "-7.5453",
        "lng": "109.0892",
        "country": "Indonesia"
    },
    {
        "city": "Wangon",
        "lat": "-7.5161",
        "lng": "109.0539",
        "country": "Indonesia"
    },
    {
        "city": "Rawalo",
        "lat": "-7.5369",
        "lng": "109.1792",
        "country": "Indonesia"
    },
    {
        "city": "Gambarsari",
        "lat": "-7.5314",
        "lng": "109.2014",
        "country": "Indonesia"
    },
    {
        "city": "Margasana",
        "lat": "-7.5383",
        "lng": "109.1383",
        "country": "Indonesia"
    },
    {
        "city": "Pesawahan",
        "lat": "-7.5242",
        "lng": "109.1678",
        "country": "Indonesia"
    },
    {
        "city": "Tugu",
        "lat": "-7.5147",
        "lng": "109.1378",
        "country": "Indonesia"
    },
    {
        "city": "Tengah",
        "lat": "-7.5553",
        "lng": "109.1131",
        "country": "Indonesia"
    },
    {
        "city": "Jatilawang",
        "lat": "-7.5344",
        "lng": "109.1197",
        "country": "Indonesia"
    },
    {
        "city": "Diwek",
        "lat": "-7.5917",
        "lng": "112.2370",
        "country": "Indonesia"
    },
    {
        "city": "Jombang",
        "lat": "-7.5448",
        "lng": "112.2360",
        "country": "Indonesia"
    },
    {
        "city": "Desa Kaler Gunungcupu",
        "lat": "-7.2948",
        "lng": "108.2298",
        "country": "Indonesia"
    },
    {
        "city": "Pemalang",
        "lat": "-6.9000",
        "lng": "109.3667",
        "country": "Indonesia"
    },
    {
        "city": "Brak",
        "lat": "-7.5592",
        "lng": "109.2200",
        "country": "Indonesia"
    },
    {
        "city": "Cimamut",
        "lat": "-7.3116",
        "lng": "108.2568",
        "country": "Indonesia"
    },
    {
        "city": "Doudo",
        "lat": "-6.9564",
        "lng": "112.4989",
        "country": "Indonesia"
    },
    {
        "city": "Sambipondok",
        "lat": "-6.9720",
        "lng": "112.5250",
        "country": "Indonesia"
    },
    {
        "city": "Jetis",
        "lat": "-6.9776",
        "lng": "112.4323",
        "country": "Indonesia"
    },
    {
        "city": "Sungaitinta",
        "lat": "-5.8452",
        "lng": "112.6693",
        "country": "Indonesia"
    },
    {
        "city": "Babakbawo",
        "lat": "-6.9886",
        "lng": "112.4872",
        "country": "Indonesia"
    },
    {
        "city": "Glatik",
        "lat": "-6.9710",
        "lng": "112.5386",
        "country": "Indonesia"
    },
    {
        "city": "Bulangan",
        "lat": "-6.9788",
        "lng": "112.3918",
        "country": "Indonesia"
    },
    {
        "city": "Prupuh",
        "lat": "-6.9127",
        "lng": "112.4578",
        "country": "Indonesia"
    },
    {
        "city": "Pantenan",
        "lat": "-6.9199",
        "lng": "112.4381",
        "country": "Indonesia"
    },
    {
        "city": "Madumulyorejo",
        "lat": "-6.9980",
        "lng": "112.4485",
        "country": "Indonesia"
    },
    {
        "city": "Ujungpangkah",
        "lat": "-6.9170",
        "lng": "112.5551",
        "country": "Indonesia"
    },
    {
        "city": "Sambogunung",
        "lat": "-6.9885",
        "lng": "112.4978",
        "country": "Indonesia"
    },
    {
        "city": "Bengkosobung",
        "lat": "-5.8462",
        "lng": "112.6570",
        "country": "Indonesia"
    },
    {
        "city": "Ketapang",
        "lat": "-6.9589",
        "lng": "112.5545",
        "country": "Indonesia"
    },
    {
        "city": "Krajan Pangkah Kulon",
        "lat": "-6.9158",
        "lng": "112.5541",
        "country": "Indonesia"
    },
    {
        "city": "Kertosonopilang",
        "lat": "-6.9856",
        "lng": "112.5206",
        "country": "Indonesia"
    },
    {
        "city": "Ketanen",
        "lat": "-6.9252",
        "lng": "112.4415",
        "country": "Indonesia"
    },
    {
        "city": "Mentaras",
        "lat": "-6.9816",
        "lng": "112.4469",
        "country": "Indonesia"
    },
    {
        "city": "Siwalan",
        "lat": "-6.9390",
        "lng": "112.4343",
        "country": "Indonesia"
    },
    {
        "city": "Wadeng",
        "lat": "-6.9664",
        "lng": "112.5139",
        "country": "Indonesia"
    },
    {
        "city": "Sidokumpul",
        "lat": "-6.8823",
        "lng": "112.4533",
        "country": "Indonesia"
    },
    {
        "city": "Golokan",
        "lat": "-6.9784",
        "lng": "112.5392",
        "country": "Indonesia"
    },
    {
        "city": "Saniwonorejo",
        "lat": "-6.9842",
        "lng": "112.4909",
        "country": "Indonesia"
    },
    {
        "city": "Tiremenggal",
        "lat": "-6.9979",
        "lng": "112.4263",
        "country": "Indonesia"
    },
    {
        "city": "Gresik",
        "lat": "-7.1539",
        "lng": "112.6561",
        "country": "Indonesia"
    },
    {
        "city": "Sembungan Kidul",
        "lat": "-7.0064",
        "lng": "112.5079",
        "country": "Indonesia"
    },
    {
        "city": "Kauman",
        "lat": "-6.9901",
        "lng": "112.5632",
        "country": "Indonesia"
    },
    {
        "city": "Rujing",
        "lat": "-5.7564",
        "lng": "112.6333",
        "country": "Indonesia"
    },
    {
        "city": "Asemanis",
        "lat": "-6.9987",
        "lng": "112.5755",
        "country": "Indonesia"
    },
    {
        "city": "Tambak",
        "lat": "-5.7321",
        "lng": "112.6503",
        "country": "Indonesia"
    },
    {
        "city": "Weru",
        "lat": "-6.8801",
        "lng": "112.4509",
        "country": "Indonesia"
    },
    {
        "city": "Sekapuk",
        "lat": "-6.9542",
        "lng": "112.5055",
        "country": "Indonesia"
    },
    {
        "city": "Grejeg Selatan",
        "lat": "-5.7540",
        "lng": "112.6667",
        "country": "Indonesia"
    },
    {
        "city": "Raci Kulon",
        "lat": "-7.0005",
        "lng": "112.5425",
        "country": "Indonesia"
    },
    {
        "city": "Wonokerto",
        "lat": "-6.9685",
        "lng": "112.3975",
        "country": "Indonesia"
    },
    {
        "city": "Gampeng",
        "lat": "-6.9365",
        "lng": "112.4530",
        "country": "Indonesia"
    },
    {
        "city": "Gosari",
        "lat": "-6.9391",
        "lng": "112.5095",
        "country": "Indonesia"
    },
    {
        "city": "Srowo",
        "lat": "-6.9838",
        "lng": "112.5644",
        "country": "Indonesia"
    },
    {
        "city": "Telukjati",
        "lat": "-5.7755",
        "lng": "112.6087",
        "country": "Indonesia"
    },
    {
        "city": "Petung",
        "lat": "-6.9725",
        "lng": "112.4776",
        "country": "Indonesia"
    },
    {
        "city": "Lowayu",
        "lat": "-6.9737",
        "lng": "112.4192",
        "country": "Indonesia"
    },
    {
        "city": "Pengulu",
        "lat": "-6.9872",
        "lng": "112.5634",
        "country": "Indonesia"
    },
    {
        "city": "Bangeran",
        "lat": "-6.9817",
        "lng": "112.4048",
        "country": "Indonesia"
    },
    {
        "city": "Mojosari",
        "lat": "-7.5194",
        "lng": "112.5597",
        "country": "Indonesia"
    },
    {
        "city": "Kebonagung",
        "lat": "-6.9435",
        "lng": "112.5322",
        "country": "Indonesia"
    },
    {
        "city": "Mojopetung",
        "lat": "-6.9803",
        "lng": "112.4678",
        "country": "Indonesia"
    },
    {
        "city": "Gupakan",
        "lat": "-6.9997",
        "lng": "112.5089",
        "country": "Indonesia"
    },
    {
        "city": "Banyulegi",
        "lat": "-6.9123",
        "lng": "112.5310",
        "country": "Indonesia"
    },
    {
        "city": "Suwari Timur",
        "lat": "-5.8154",
        "lng": "112.5983",
        "country": "Indonesia"
    },
    {
        "city": "Sumampir",
        "lat": "-6.9998",
        "lng": "112.4436",
        "country": "Indonesia"
    },
    {
        "city": "Sidayu",
        "lat": "-6.9993",
        "lng": "112.5636",
        "country": "Indonesia"
    },
    {
        "city": "Bunderan",
        "lat": "-6.9908",
        "lng": "112.5614",
        "country": "Indonesia"
    },
    {
        "city": "Karangrejo",
        "lat": "-6.9523",
        "lng": "112.5551",
        "country": "Indonesia"
    },
    {
        "city": "Asempapak",
        "lat": "-6.9950",
        "lng": "112.5642",
        "country": "Indonesia"
    },
    {
        "city": "Watuguling",
        "lat": "-6.9187",
        "lng": "112.4530",
        "country": "Indonesia"
    },
    {
        "city": "Wotan",
        "lat": "-6.9594",
        "lng": "112.4862",
        "country": "Indonesia"
    },
    {
        "city": "Mojoasem",
        "lat": "-6.9965",
        "lng": "112.5728",
        "country": "Indonesia"
    },
    {
        "city": "Sedagaran",
        "lat": "-6.9857",
        "lng": "112.5651",
        "country": "Indonesia"
    },
    {
        "city": "Randuboto",
        "lat": "-7.0034",
        "lng": "112.5812",
        "country": "Indonesia"
    },
    {
        "city": "Tebuwung",
        "lat": "-6.9813",
        "lng": "112.4398",
        "country": "Indonesia"
    },
    {
        "city": "Sukorejo",
        "lat": "-6.9820",
        "lng": "112.4999",
        "country": "Indonesia"
    },
    {
        "city": "Gopaan",
        "lat": "-7.0014",
        "lng": "112.5106",
        "country": "Indonesia"
    },
    {
        "city": "Bolo",
        "lat": "-6.9621",
        "lng": "112.5233",
        "country": "Indonesia"
    },
    {
        "city": "Sidomulyo",
        "lat": "-6.9930",
        "lng": "112.5644",
        "country": "Indonesia"
    },
    {
        "city": "Delegan",
        "lat": "-6.9008",
        "lng": "112.4626",
        "country": "Indonesia"
    },
    {
        "city": "Campurrejo",
        "lat": "-6.8843",
        "lng": "112.4529",
        "country": "Indonesia"
    },
    {
        "city": "Gedangan",
        "lat": "-6.9699",
        "lng": "112.4964",
        "country": "Indonesia"
    },
    {
        "city": "Waru Lor",
        "lat": "-6.8835",
        "lng": "112.4544",
        "country": "Indonesia"
    },
    {
        "city": "Sukodono",
        "lat": "-6.9586",
        "lng": "112.4567",
        "country": "Indonesia"
    },
    {
        "city": "Mriyunan",
        "lat": "-6.9902",
        "lng": "112.5664",
        "country": "Indonesia"
    },
    {
        "city": "Serah",
        "lat": "-6.9490",
        "lng": "112.4439",
        "country": "Indonesia"
    },
    {
        "city": "Banyutengah",
        "lat": "-6.8919",
        "lng": "112.4528",
        "country": "Indonesia"
    },
    {
        "city": "Purwodadi",
        "lat": "-6.9856",
        "lng": "112.5623",
        "country": "Indonesia"
    },
    {
        "city": "Cangaan",
        "lat": "-6.9218",
        "lng": "112.5058",
        "country": "Indonesia"
    },
    {
        "city": "Ngembo",
        "lat": "-6.9087",
        "lng": "112.5022",
        "country": "Indonesia"
    },
    {
        "city": "Sudimara",
        "lat": "-5.8325",
        "lng": "112.6948",
        "country": "Indonesia"
    },
    {
        "city": "Lasem",
        "lat": "-6.9889",
        "lng": "112.5075",
        "country": "Indonesia"
    },
    {
        "city": "Imaan",
        "lat": "-6.9849",
        "lng": "112.4737",
        "country": "Indonesia"
    },
    {
        "city": "Kemeduran",
        "lat": "-6.9160",
        "lng": "112.5575",
        "country": "Indonesia"
    },
    {
        "city": "Eler",
        "lat": "-5.7567",
        "lng": "112.6431",
        "country": "Indonesia"
    },
    {
        "city": "Jepara",
        "lat": "-6.5924",
        "lng": "110.6710",
        "country": "Indonesia"
    },
    {
        "city": "Paloh",
        "lat": "-6.8776",
        "lng": "112.4484",
        "country": "Indonesia"
    },
    {
        "city": "Purbalingga",
        "lat": "-7.3881",
        "lng": "109.3639",
        "country": "Indonesia"
    },
    {
        "city": "Mungkid",
        "lat": "-7.5925",
        "lng": "110.2189",
        "country": "Indonesia"
    },
    {
        "city": "Purwakarta",
        "lat": "-6.5569",
        "lng": "107.4433",
        "country": "Indonesia"
    },
    {
        "city": "Bangil",
        "lat": "-7.5993",
        "lng": "112.7840",
        "country": "Indonesia"
    },
    {
        "city": "Lanpelan",
        "lat": "-6.9819",
        "lng": "113.5989",
        "country": "Indonesia"
    },
    {
        "city": "Rokem Barat",
        "lat": "-6.8973",
        "lng": "113.5316",
        "country": "Indonesia"
    },
    {
        "city": "Pogag",
        "lat": "-7.0638",
        "lng": "113.5187",
        "country": "Indonesia"
    },
    {
        "city": "Kendal",
        "lat": "-7.0436",
        "lng": "113.5874",
        "country": "Indonesia"
    },
    {
        "city": "Batuputih",
        "lat": "-7.1183",
        "lng": "113.5523",
        "country": "Indonesia"
    },
    {
        "city": "Langdulang",
        "lat": "-6.9508",
        "lng": "113.6066",
        "country": "Indonesia"
    },
    {
        "city": "Brumbung Laok",
        "lat": "-6.9271",
        "lng": "113.5165",
        "country": "Indonesia"
    },
    {
        "city": "Barajalan",
        "lat": "-7.1332",
        "lng": "113.5347",
        "country": "Indonesia"
    },
    {
        "city": "Palalang",
        "lat": "-7.0326",
        "lng": "113.5735",
        "country": "Indonesia"
    },
    {
        "city": "Bong",
        "lat": "-7.2261",
        "lng": "113.5001",
        "country": "Indonesia"
    },
    {
        "city": "Baban",
        "lat": "-6.9266",
        "lng": "113.4911",
        "country": "Indonesia"
    },
    {
        "city": "Baban",
        "lat": "-6.9939",
        "lng": "113.5221",
        "country": "Indonesia"
    },
    {
        "city": "Toampar",
        "lat": "-7.1310",
        "lng": "113.5424",
        "country": "Indonesia"
    },
    {
        "city": "Karangdalam",
        "lat": "-7.1888",
        "lng": "113.5125",
        "country": "Indonesia"
    },
    {
        "city": "Bunder",
        "lat": "-7.1867",
        "lng": "113.5297",
        "country": "Indonesia"
    },
    {
        "city": "Waru",
        "lat": "-6.9421",
        "lng": "113.5499",
        "country": "Indonesia"
    },
    {
        "city": "Masaran",
        "lat": "-6.9869",
        "lng": "113.5950",
        "country": "Indonesia"
    },
    {
        "city": "Gungguh",
        "lat": "-7.0350",
        "lng": "113.5599",
        "country": "Indonesia"
    },
    {
        "city": "Utara",
        "lat": "-7.1683",
        "lng": "113.4987",
        "country": "Indonesia"
    },
    {
        "city": "Bandungan Timur",
        "lat": "-6.9634",
        "lng": "113.4884",
        "country": "Indonesia"
    },
    {
        "city": "Lonpao Dajah",
        "lat": "-6.8989",
        "lng": "113.4891",
        "country": "Indonesia"
    },
    {
        "city": "Sekolahan",
        "lat": "-7.1143",
        "lng": "113.5829",
        "country": "Indonesia"
    },
    {
        "city": "Bertah",
        "lat": "-7.1152",
        "lng": "113.5487",
        "country": "Indonesia"
    },
    {
        "city": "Pregi",
        "lat": "-6.9810",
        "lng": "113.5398",
        "country": "Indonesia"
    },
    {
        "city": "Tonggakjati",
        "lat": "-7.0612",
        "lng": "113.5280",
        "country": "Indonesia"
    },
    {
        "city": "Jambul",
        "lat": "-7.2186",
        "lng": "113.5306",
        "country": "Indonesia"
    },
    {
        "city": "Sumberbendo",
        "lat": "-7.0655",
        "lng": "113.5272",
        "country": "Indonesia"
    },
    {
        "city": "Batas Barat",
        "lat": "-7.0506",
        "lng": "113.5429",
        "country": "Indonesia"
    },
    {
        "city": "Rongrongan",
        "lat": "-7.1505",
        "lng": "113.5283",
        "country": "Indonesia"
    },
    {
        "city": "Sumber Tengah",
        "lat": "-7.0406",
        "lng": "113.5349",
        "country": "Indonesia"
    },
    {
        "city": "Gunungtengah",
        "lat": "-6.9653",
        "lng": "113.5521",
        "country": "Indonesia"
    },
    {
        "city": "Pademawu",
        "lat": "-7.1862",
        "lng": "113.5257",
        "country": "Indonesia"
    },
    {
        "city": "Duko",
        "lat": "-6.9189",
        "lng": "113.6224",
        "country": "Indonesia"
    },
    {
        "city": "Sangoleng",
        "lat": "-6.9001",
        "lng": "113.5144",
        "country": "Indonesia"
    },
    {
        "city": "Tanahmerah",
        "lat": "-7.1337",
        "lng": "113.5712",
        "country": "Indonesia"
    },
    {
        "city": "Sannip",
        "lat": "-7.0475",
        "lng": "113.5842",
        "country": "Indonesia"
    },
    {
        "city": "Laokgunung",
        "lat": "-6.9489",
        "lng": "113.5825",
        "country": "Indonesia"
    },
    {
        "city": "Secang Barat",
        "lat": "-6.9738",
        "lng": "113.4418",
        "country": "Indonesia"
    },
    {
        "city": "Pasean",
        "lat": "-6.8932",
        "lng": "113.5805",
        "country": "Indonesia"
    },
    {
        "city": "Murtajih",
        "lat": "-7.1669",
        "lng": "113.5091",
        "country": "Indonesia"
    },
    {
        "city": "Grujugan",
        "lat": "-7.1279",
        "lng": "113.5384",
        "country": "Indonesia"
    },
    {
        "city": "Tentenan",
        "lat": "-7.1304",
        "lng": "113.5333",
        "country": "Indonesia"
    },
    {
        "city": "Duwaktenggi",
        "lat": "-7.1108",
        "lng": "113.5265",
        "country": "Indonesia"
    },
    {
        "city": "Jepon",
        "lat": "-6.9123",
        "lng": "113.6287",
        "country": "Indonesia"
    },
    {
        "city": "Patapan",
        "lat": "-7.0279",
        "lng": "113.5081",
        "country": "Indonesia"
    },
    {
        "city": "Bangkal",
        "lat": "-7.2270",
        "lng": "113.5304",
        "country": "Indonesia"
    },
    {
        "city": "Mungging",
        "lat": "-7.2043",
        "lng": "113.5320",
        "country": "Indonesia"
    },
    {
        "city": "Tamberu",
        "lat": "-6.8981",
        "lng": "113.4843",
        "country": "Indonesia"
    },
    {
        "city": "Taraban Timur",
        "lat": "-7.1149",
        "lng": "113.5773",
        "country": "Indonesia"
    },
    {
        "city": "Daleman Tengah",
        "lat": "-7.1050",
        "lng": "113.5913",
        "country": "Indonesia"
    },
    {
        "city": "Tenggina",
        "lat": "-7.0544",
        "lng": "113.5653",
        "country": "Indonesia"
    },
    {
        "city": "Tenggina",
        "lat": "-6.9987",
        "lng": "113.5648",
        "country": "Indonesia"
    },
    {
        "city": "Bakbatu",
        "lat": "-7.0831",
        "lng": "113.5943",
        "country": "Indonesia"
    },
    {
        "city": "Pandiyan",
        "lat": "-7.1315",
        "lng": "113.5579",
        "country": "Indonesia"
    },
    {
        "city": "Platok",
        "lat": "-7.1303",
        "lng": "113.5787",
        "country": "Indonesia"
    },
    {
        "city": "Galis",
        "lat": "-7.1562",
        "lng": "113.5537",
        "country": "Indonesia"
    },
    {
        "city": "Gunung",
        "lat": "-7.0148",
        "lng": "113.5819",
        "country": "Indonesia"
    },
    {
        "city": "Nampera",
        "lat": "-7.1582",
        "lng": "113.5554",
        "country": "Indonesia"
    },
    {
        "city": "Gagah",
        "lat": "-7.1073",
        "lng": "113.5949",
        "country": "Indonesia"
    },
    {
        "city": "Ombul",
        "lat": "-7.1507",
        "lng": "113.4976",
        "country": "Indonesia"
    },
    {
        "city": "Trebungonjur",
        "lat": "-7.0089",
        "lng": "113.5144",
        "country": "Indonesia"
    },
    {
        "city": "Tandes",
        "lat": "-7.1579",
        "lng": "113.5405",
        "country": "Indonesia"
    },
    {
        "city": "Angsana Timur",
        "lat": "-7.0913",
        "lng": "113.5430",
        "country": "Indonesia"
    },
    {
        "city": "Kebon",
        "lat": "-7.1849",
        "lng": "113.5025",
        "country": "Indonesia"
    },
    {
        "city": "Toroy",
        "lat": "-6.9179",
        "lng": "113.6087",
        "country": "Indonesia"
    },
    {
        "city": "Dorbuk Utara",
        "lat": "-7.1932",
        "lng": "113.5038",
        "country": "Indonesia"
    },
    {
        "city": "Pancoran",
        "lat": "-7.1035",
        "lng": "113.5201",
        "country": "Indonesia"
    },
    {
        "city": "Sumberngerjat",
        "lat": "-7.0888",
        "lng": "113.5901",
        "country": "Indonesia"
    },
    {
        "city": "Lobuk",
        "lat": "-7.1591",
        "lng": "113.5186",
        "country": "Indonesia"
    },
    {
        "city": "Pakong",
        "lat": "-7.0311",
        "lng": "113.5496",
        "country": "Indonesia"
    },
    {
        "city": "Morsoksok",
        "lat": "-7.2078",
        "lng": "113.4979",
        "country": "Indonesia"
    },
    {
        "city": "Mor Laok",
        "lat": "-7.2244",
        "lng": "113.5151",
        "country": "Indonesia"
    },
    {
        "city": "Lembung Tengah",
        "lat": "-7.1621",
        "lng": "113.5619",
        "country": "Indonesia"
    },
    {
        "city": "Oro Timur",
        "lat": "-6.8954",
        "lng": "113.5713",
        "country": "Indonesia"
    },
    {
        "city": "Paolasen",
        "lat": "-6.9993",
        "lng": "113.5325",
        "country": "Indonesia"
    },
    {
        "city": "Timur Dajah",
        "lat": "-6.8971",
        "lng": "113.5218",
        "country": "Indonesia"
    },
    {
        "city": "Sumberbatas",
        "lat": "-7.0497",
        "lng": "113.5583",
        "country": "Indonesia"
    },
    {
        "city": "Trasak",
        "lat": "-7.1323",
        "lng": "113.5235",
        "country": "Indonesia"
    },
    {
        "city": "Telangi Satu",
        "lat": "-6.9451",
        "lng": "113.5464",
        "country": "Indonesia"
    },
    {
        "city": "Pakong Laok",
        "lat": "-7.0417",
        "lng": "113.5567",
        "country": "Indonesia"
    },
    {
        "city": "Bulung",
        "lat": "-7.1583",
        "lng": "113.5100",
        "country": "Indonesia"
    },
    {
        "city": "Kadur",
        "lat": "-7.0930",
        "lng": "113.5586",
        "country": "Indonesia"
    },
    {
        "city": "Larangan",
        "lat": "-7.1287",
        "lng": "113.5470",
        "country": "Indonesia"
    },
    {
        "city": "Tengah",
        "lat": "-6.9942",
        "lng": "113.5584",
        "country": "Indonesia"
    },
    {
        "city": "Tengah",
        "lat": "-6.9313",
        "lng": "113.5515",
        "country": "Indonesia"
    },
    {
        "city": "Rapas",
        "lat": "-6.9366",
        "lng": "113.5121",
        "country": "Indonesia"
    },
    {
        "city": "Polagan Tengah",
        "lat": "-7.1385",
        "lng": "113.5607",
        "country": "Indonesia"
    },
    {
        "city": "Danpateh",
        "lat": "-6.9293",
        "lng": "113.5368",
        "country": "Indonesia"
    },
    {
        "city": "Bulay",
        "lat": "-7.1427",
        "lng": "113.5485",
        "country": "Indonesia"
    },
    {
        "city": "Kalebun",
        "lat": "-6.9434",
        "lng": "113.4837",
        "country": "Indonesia"
    },
    {
        "city": "Biris Daja",
        "lat": "-7.1538",
        "lng": "113.5197",
        "country": "Indonesia"
    },
    {
        "city": "Plasah",
        "lat": "-7.1746",
        "lng": "113.5536",
        "country": "Indonesia"
    },
    {
        "city": "Barat",
        "lat": "-7.0442",
        "lng": "113.5762",
        "country": "Indonesia"
    },
    {
        "city": "Barat",
        "lat": "-7.0496",
        "lng": "113.4945",
        "country": "Indonesia"
    },
    {
        "city": "Temorlorong",
        "lat": "-7.1339",
        "lng": "113.5200",
        "country": "Indonesia"
    },
    {
        "city": "Nomih",
        "lat": "-6.9828",
        "lng": "113.4857",
        "country": "Indonesia"
    },
    {
        "city": "Pamekasan",
        "lat": "-7.1568",
        "lng": "113.4746",
        "country": "Indonesia"
    },
    {
        "city": "Wakduwa Barat",
        "lat": "-6.9394",
        "lng": "113.5273",
        "country": "Indonesia"
    },
    {
        "city": "Jrebeng",
        "lat": "-7.0051",
        "lng": "112.4662",
        "country": "Indonesia"
    },
    {
        "city": "Gambolempuk",
        "lat": "-7.5678",
        "lng": "109.2322",
        "country": "Indonesia"
    },
    {
        "city": "Batakte",
        "lat": "-10.2559",
        "lng": "123.5566",
        "country": "Indonesia"
    },
    {
        "city": "Sumurber",
        "lat": "-6.9495",
        "lng": "112.4288",
        "country": "Indonesia"
    },
    {
        "city": "Tuliskriyo",
        "lat": "-8.1341",
        "lng": "112.1519",
        "country": "Indonesia"
    },
    {
        "city": "Karanganyar",
        "lat": "-7.5983",
        "lng": "110.9444",
        "country": "Indonesia"
    },
    {
        "city": "Kadumanis",
        "lat": "-7.1762",
        "lng": "108.8671",
        "country": "Indonesia"
    },
    {
        "city": "Cisitu",
        "lat": "-7.1419",
        "lng": "108.7990",
        "country": "Indonesia"
    },
    {
        "city": "Salanegara",
        "lat": "-7.1616",
        "lng": "108.7433",
        "country": "Indonesia"
    },
    {
        "city": "Kertasari",
        "lat": "-7.0685",
        "lng": "108.8290",
        "country": "Indonesia"
    },
    {
        "city": "Bentarsari",
        "lat": "-7.1539",
        "lng": "108.8161",
        "country": "Indonesia"
    },
    {
        "city": "Legok",
        "lat": "-7.2174",
        "lng": "108.8301",
        "country": "Indonesia"
    },
    {
        "city": "Blandongan",
        "lat": "-7.0886",
        "lng": "108.8378",
        "country": "Indonesia"
    },
    {
        "city": "Ganggawang",
        "lat": "-7.1637",
        "lng": "108.8172",
        "country": "Indonesia"
    },
    {
        "city": "Banjaran",
        "lat": "-7.1905",
        "lng": "108.7977",
        "country": "Indonesia"
    },
    {
        "city": "Gununglarang",
        "lat": "-7.1970",
        "lng": "108.8309",
        "country": "Indonesia"
    },
    {
        "city": "Bentar",
        "lat": "-7.1506",
        "lng": "108.8095",
        "country": "Indonesia"
    },
    {
        "city": "Muara",
        "lat": "-7.2557",
        "lng": "108.8729",
        "country": "Indonesia"
    },
    {
        "city": "Salem Kidul",
        "lat": "-7.1855",
        "lng": "108.8040",
        "country": "Indonesia"
    },
    {
        "city": "Dukuhkopi",
        "lat": "-7.0142",
        "lng": "108.8375",
        "country": "Indonesia"
    },
    {
        "city": "Winduasri",
        "lat": "-7.1385",
        "lng": "108.7327",
        "country": "Indonesia"
    },
    {
        "city": "Kandayakan Satu",
        "lat": "-7.1370",
        "lng": "108.7827",
        "country": "Indonesia"
    },
    {
        "city": "Melahayu",
        "lat": "-7.0260",
        "lng": "108.8269",
        "country": "Indonesia"
    },
    {
        "city": "Gandoang",
        "lat": "-7.1668",
        "lng": "108.8436",
        "country": "Indonesia"
    },
    {
        "city": "Windusakti Hilir",
        "lat": "-7.1554",
        "lng": "108.7231",
        "country": "Indonesia"
    },
    {
        "city": "Ciputih",
        "lat": "-7.1564",
        "lng": "108.8231",
        "country": "Indonesia"
    },
    {
        "city": "Pamedaran",
        "lat": "-7.0680",
        "lng": "108.8647",
        "country": "Indonesia"
    },
    {
        "city": "Cipanjang",
        "lat": "-7.0645",
        "lng": "108.8117",
        "country": "Indonesia"
    },
    {
        "city": "Capar",
        "lat": "-7.1192",
        "lng": "108.7338",
        "country": "Indonesia"
    },
    {
        "city": "Indrajaya Satu",
        "lat": "-7.1751",
        "lng": "108.7750",
        "country": "Indonesia"
    },
    {
        "city": "Cogreg",
        "lat": "-7.1474",
        "lng": "108.8017",
        "country": "Indonesia"
    },
    {
        "city": "Brebes",
        "lat": "-6.8691",
        "lng": "109.0378",
        "country": "Indonesia"
    },
    {
        "city": "Citimbang",
        "lat": "-7.1894",
        "lng": "108.8567",
        "country": "Indonesia"
    },
    {
        "city": "Salem",
        "lat": "-7.1825",
        "lng": "108.8059",
        "country": "Indonesia"
    },
    {
        "city": "Sindangheula",
        "lat": "-7.0879",
        "lng": "108.8106",
        "country": "Indonesia"
    },
    {
        "city": "Gunungjaya",
        "lat": "-7.1834",
        "lng": "108.7420",
        "country": "Indonesia"
    },
    {
        "city": "Bandungsari",
        "lat": "-7.0771",
        "lng": "108.8205",
        "country": "Indonesia"
    },
    {
        "city": "Legoknyenang",
        "lat": "-7.1740",
        "lng": "108.8295",
        "country": "Indonesia"
    },
    {
        "city": "Tembongraja",
        "lat": "-7.1499",
        "lng": "108.7600",
        "country": "Indonesia"
    },
    {
        "city": "Sumberaya Barat",
        "lat": "-7.0434",
        "lng": "113.5924",
        "country": "Indonesia"
    },
    {
        "city": "Sukasari",
        "lat": "-7.2346",
        "lng": "108.8607",
        "country": "Indonesia"
    },
    {
        "city": "Sitimerto",
        "lat": "-7.7676",
        "lng": "112.0868",
        "country": "Indonesia"
    },
    {
        "city": "Krajan Wetan Wonojoyo",
        "lat": "-7.8228",
        "lng": "112.0792",
        "country": "Indonesia"
    },
    {
        "city": "Ngasem",
        "lat": "-7.7965",
        "lng": "112.0447",
        "country": "Indonesia"
    },
    {
        "city": "Penanggapan",
        "lat": "-7.0633",
        "lng": "108.7875",
        "country": "Indonesia"
    },
    {
        "city": "Ciherang",
        "lat": "-6.1829",
        "lng": "106.0599",
        "country": "Indonesia"
    },
    {
        "city": "Kadumonyong",
        "lat": "-6.1725",
        "lng": "105.8847",
        "country": "Indonesia"
    },
    {
        "city": "Padarincang",
        "lat": "-6.2140",
        "lng": "105.9512",
        "country": "Indonesia"
    },
    {
        "city": "Panyirapan",
        "lat": "-6.2339",
        "lng": "106.1233",
        "country": "Indonesia"
    },
    {
        "city": "Citasuk",
        "lat": "-6.2112",
        "lng": "105.9606",
        "country": "Indonesia"
    },
    {
        "city": "Pancanagara",
        "lat": "-6.1919",
        "lng": "106.0877",
        "country": "Indonesia"
    },
    {
        "city": "Pondokwaru",
        "lat": "-6.1972",
        "lng": "105.8394",
        "country": "Indonesia"
    },
    {
        "city": "Citaman",
        "lat": "-6.2356",
        "lng": "106.0201",
        "country": "Indonesia"
    },
    {
        "city": "Dahu",
        "lat": "-6.2163",
        "lng": "105.8740",
        "country": "Indonesia"
    },
    {
        "city": "Talagabakti",
        "lat": "-6.2081",
        "lng": "106.0093",
        "country": "Indonesia"
    },
    {
        "city": "Bojonegara",
        "lat": "-5.9700",
        "lng": "106.0955",
        "country": "Indonesia"
    },
    {
        "city": "Pabuaran",
        "lat": "-6.2043",
        "lng": "106.0711",
        "country": "Indonesia"
    },
    {
        "city": "Langgen",
        "lat": "-5.9832",
        "lng": "106.3056",
        "country": "Indonesia"
    },
    {
        "city": "Sioah",
        "lat": "-6.2063",
        "lng": "106.1107",
        "country": "Indonesia"
    },
    {
        "city": "Nengger",
        "lat": "-6.2083",
        "lng": "105.9875",
        "country": "Indonesia"
    },
    {
        "city": "Kopibaru",
        "lat": "-6.1620",
        "lng": "105.8729",
        "country": "Indonesia"
    },
    {
        "city": "Kurungkotok",
        "lat": "-6.2278",
        "lng": "106.0372",
        "country": "Indonesia"
    },
    {
        "city": "Cibunut",
        "lat": "-6.1601",
        "lng": "105.9113",
        "country": "Indonesia"
    },
    {
        "city": "Lebak",
        "lat": "-6.2369",
        "lng": "106.0119",
        "country": "Indonesia"
    },
    {
        "city": "Sirnagalih",
        "lat": "-6.2157",
        "lng": "106.0437",
        "country": "Indonesia"
    },
    {
        "city": "Cipayung",
        "lat": "-6.2074",
        "lng": "106.0158",
        "country": "Indonesia"
    },
    {
        "city": "Cikuray",
        "lat": "-6.1987",
        "lng": "105.9254",
        "country": "Indonesia"
    },
    {
        "city": "Tawingmuara",
        "lat": "-6.1637",
        "lng": "105.8548",
        "country": "Indonesia"
    },
    {
        "city": "Cilongkrangpusaka",
        "lat": "-6.2263",
        "lng": "106.0253",
        "country": "Indonesia"
    },
    {
        "city": "Uluarang",
        "lat": "-6.1473",
        "lng": "106.0452",
        "country": "Indonesia"
    },
    {
        "city": "Kampungsawah Landeuh",
        "lat": "-6.2485",
        "lng": "106.0100",
        "country": "Indonesia"
    },
    {
        "city": "Sukacai",
        "lat": "-6.2365",
        "lng": "106.1105",
        "country": "Indonesia"
    },
    {
        "city": "Lengor",
        "lat": "-6.2279",
        "lng": "106.1100",
        "country": "Indonesia"
    },
    {
        "city": "Kaduela",
        "lat": "-6.2452",
        "lng": "106.0814",
        "country": "Indonesia"
    },
    {
        "city": "Merapit",
        "lat": "-6.1544",
        "lng": "106.0625",
        "country": "Indonesia"
    },
    {
        "city": "Cikaung",
        "lat": "-6.2040",
        "lng": "106.0827",
        "country": "Indonesia"
    },
    {
        "city": "Pasauran",
        "lat": "-6.2306",
        "lng": "105.8325",
        "country": "Indonesia"
    },
    {
        "city": "Sampiran",
        "lat": "-6.2084",
        "lng": "106.0734",
        "country": "Indonesia"
    },
    {
        "city": "Timurjaya",
        "lat": "-5.8141",
        "lng": "106.2851",
        "country": "Indonesia"
    },
    {
        "city": "Lontar",
        "lat": "-5.9699",
        "lng": "106.3053",
        "country": "Indonesia"
    },
    {
        "city": "Kopibera",
        "lat": "-6.1548",
        "lng": "105.8734",
        "country": "Indonesia"
    },
    {
        "city": "Manggu",
        "lat": "-6.2153",
        "lng": "105.9497",
        "country": "Indonesia"
    },
    {
        "city": "Kalibuntu",
        "lat": "-6.2134",
        "lng": "106.1138",
        "country": "Indonesia"
    },
    {
        "city": "Nagreg",
        "lat": "-6.2556",
        "lng": "106.0056",
        "country": "Indonesia"
    },
    {
        "city": "Nagreg",
        "lat": "-6.2194",
        "lng": "106.0891",
        "country": "Indonesia"
    },
    {
        "city": "Cibojong",
        "lat": "-6.2202",
        "lng": "105.9392",
        "country": "Indonesia"
    },
    {
        "city": "Peuteuy",
        "lat": "-6.2607",
        "lng": "106.0028",
        "country": "Indonesia"
    },
    {
        "city": "Panenjoan",
        "lat": "-6.1292",
        "lng": "106.0044",
        "country": "Indonesia"
    },
    {
        "city": "Cikendi",
        "lat": "-6.2107",
        "lng": "106.0234",
        "country": "Indonesia"
    },
    {
        "city": "Pangarengan",
        "lat": "-5.9571",
        "lng": "106.0727",
        "country": "Indonesia"
    },
    {
        "city": "Mekarsari",
        "lat": "-6.1351",
        "lng": "105.9047",
        "country": "Indonesia"
    },
    {
        "city": "Umbultanjung",
        "lat": "-6.2337",
        "lng": "105.8316",
        "country": "Indonesia"
    },
    {
        "city": "Kalumpang",
        "lat": "-6.2130",
        "lng": "105.9529",
        "country": "Indonesia"
    },
    {
        "city": "Parapatan",
        "lat": "-6.2286",
        "lng": "106.0595",
        "country": "Indonesia"
    },
    {
        "city": "Cikedung",
        "lat": "-6.1322",
        "lng": "105.9853",
        "country": "Indonesia"
    },
    {
        "city": "Bantarwaru",
        "lat": "-6.2026",
        "lng": "105.8642",
        "country": "Indonesia"
    },
    {
        "city": "Pakuncen",
        "lat": "-5.9543",
        "lng": "106.0711",
        "country": "Indonesia"
    },
    {
        "city": "Ciomas",
        "lat": "-6.2173",
        "lng": "106.0440",
        "country": "Indonesia"
    },
    {
        "city": "Gunungsari",
        "lat": "-6.1628",
        "lng": "106.0611",
        "country": "Indonesia"
    },
    {
        "city": "Curuggoong",
        "lat": "-6.2165",
        "lng": "106.0035",
        "country": "Indonesia"
    },
    {
        "city": "Tambakan",
        "lat": "-6.2028",
        "lng": "105.9384",
        "country": "Indonesia"
    },
    {
        "city": "Rancaranji",
        "lat": "-6.2124",
        "lng": "105.9342",
        "country": "Indonesia"
    },
    {
        "city": "Kaduranca",
        "lat": "-6.2202",
        "lng": "105.9254",
        "country": "Indonesia"
    },
    {
        "city": "Cibetung Dua",
        "lat": "-6.2000",
        "lng": "106.0247",
        "country": "Indonesia"
    },
    {
        "city": "Bojongseler",
        "lat": "-6.1427",
        "lng": "106.0338",
        "country": "Indonesia"
    },
    {
        "city": "Cemplang",
        "lat": "-6.2300",
        "lng": "106.0752",
        "country": "Indonesia"
    },
    {
        "city": "Ungaran",
        "lat": "-7.1333",
        "lng": "110.4043",
        "country": "Indonesia"
    },
    {
        "city": "Sawo",
        "lat": "-6.9693",
        "lng": "112.3746",
        "country": "Indonesia"
    },
    {
        "city": "Brangsi",
        "lat": "-6.9726",
        "lng": "112.3667",
        "country": "Indonesia"
    },
    {
        "city": "Kendal",
        "lat": "-6.9213",
        "lng": "110.2022",
        "country": "Indonesia"
    },
    {
        "city": "Bengkel Utara",
        "lat": "-8.6159",
        "lng": "116.1482",
        "country": "Indonesia"
    },
    {
        "city": "Sukahurip",
        "lat": "-7.4475",
        "lng": "108.1848",
        "country": "Indonesia"
    },
    {
        "city": "Polay Atas",
        "lat": "-7.0662",
        "lng": "113.5964",
        "country": "Indonesia"
    },
    {
        "city": "Sragen",
        "lat": "-7.4264",
        "lng": "111.0222",
        "country": "Indonesia"
    },
    {
        "city": "Baron",
        "lat": "-7.0129",
        "lng": "112.4533",
        "country": "Indonesia"
    },
    {
        "city": "Tlogosadang",
        "lat": "-6.8870",
        "lng": "112.4429",
        "country": "Indonesia"
    },
    {
        "city": "Desa Borogojol",
        "lat": "-7.0438",
        "lng": "108.1819",
        "country": "Indonesia"
    },
    {
        "city": "Cimanggu Girang",
        "lat": "-7.0450",
        "lng": "108.3465",
        "country": "Indonesia"
    },
    {
        "city": "Cikondang",
        "lat": "-7.0429",
        "lng": "108.3693",
        "country": "Indonesia"
    },
    {
        "city": "Cidadap",
        "lat": "-7.0298",
        "lng": "108.3156",
        "country": "Indonesia"
    },
    {
        "city": "Werasari",
        "lat": "-7.0358",
        "lng": "108.2346",
        "country": "Indonesia"
    },
    {
        "city": "Sarimukti",
        "lat": "-7.0315",
        "lng": "108.3130",
        "country": "Indonesia"
    },
    {
        "city": "Desa Sindanghurip",
        "lat": "-7.0168",
        "lng": "108.2420",
        "country": "Indonesia"
    },
    {
        "city": "Cimanggu Hilir",
        "lat": "-7.0039",
        "lng": "108.2594",
        "country": "Indonesia"
    },
    {
        "city": "Buninegara",
        "lat": "-7.0382",
        "lng": "108.2270",
        "country": "Indonesia"
    },
    {
        "city": "Cibeureum",
        "lat": "-7.0218",
        "lng": "108.3031",
        "country": "Indonesia"
    },
    {
        "city": "Majalengka",
        "lat": "-6.8361",
        "lng": "108.2278",
        "country": "Indonesia"
    },
    {
        "city": "Cimuncang",
        "lat": "-7.0548",
        "lng": "108.2803",
        "country": "Indonesia"
    },
    {
        "city": "Wangkelang",
        "lat": "-7.0466",
        "lng": "108.3389",
        "country": "Indonesia"
    },
    {
        "city": "Lemahputih",
        "lat": "-7.0099",
        "lng": "108.1698",
        "country": "Indonesia"
    },
    {
        "city": "Ciranca Satu",
        "lat": "-7.0333",
        "lng": "108.2829",
        "country": "Indonesia"
    },
    {
        "city": "Bangbayang",
        "lat": "-7.0393",
        "lng": "108.2058",
        "country": "Indonesia"
    },
    {
        "city": "Sindangpanji",
        "lat": "-7.0208",
        "lng": "108.3807",
        "country": "Indonesia"
    },
    {
        "city": "Jatipamor",
        "lat": "-7.0028",
        "lng": "108.3290",
        "country": "Indonesia"
    },
    {
        "city": "Cisoka",
        "lat": "-7.0393",
        "lng": "108.3768",
        "country": "Indonesia"
    },
    {
        "city": "Maniis",
        "lat": "-7.0387",
        "lng": "108.3144",
        "country": "Indonesia"
    },
    {
        "city": "Jaga",
        "lat": "-7.0451",
        "lng": "108.2690",
        "country": "Indonesia"
    },
    {
        "city": "Sukadana",
        "lat": "-7.0179",
        "lng": "108.2228",
        "country": "Indonesia"
    },
    {
        "city": "Sukamukti",
        "lat": "-7.0167",
        "lng": "108.3632",
        "country": "Indonesia"
    },
    {
        "city": "Cidulang",
        "lat": "-7.0114",
        "lng": "108.3715",
        "country": "Indonesia"
    },
    {
        "city": "Cipeundeuy",
        "lat": "-7.0147",
        "lng": "108.2315",
        "country": "Indonesia"
    },
    {
        "city": "Mulyasari",
        "lat": "-7.0394",
        "lng": "108.3542",
        "country": "Indonesia"
    },
    {
        "city": "Nagarakembang",
        "lat": "-7.0397",
        "lng": "108.3342",
        "country": "Indonesia"
    },
    {
        "city": "Cintasari",
        "lat": "-7.0049",
        "lng": "108.3464",
        "country": "Indonesia"
    },
    {
        "city": "Cikeusal",
        "lat": "-7.0137",
        "lng": "108.3076",
        "country": "Indonesia"
    },
    {
        "city": "Sindang",
        "lat": "-7.0047",
        "lng": "108.3350",
        "country": "Indonesia"
    },
    {
        "city": "Sidaraja",
        "lat": "-7.0282",
        "lng": "108.3058",
        "country": "Indonesia"
    },
    {
        "city": "Margamukti",
        "lat": "-7.0092",
        "lng": "108.2846",
        "country": "Indonesia"
    },
    {
        "city": "Cilimus",
        "lat": "-7.0460",
        "lng": "108.2594",
        "country": "Indonesia"
    },
    {
        "city": "Cingambul",
        "lat": "-7.0449",
        "lng": "108.3532",
        "country": "Indonesia"
    },
    {
        "city": "Cibulan",
        "lat": "-7.0297",
        "lng": "108.1922",
        "country": "Indonesia"
    },
    {
        "city": "Bagjasari",
        "lat": "-7.0043",
        "lng": "108.3581",
        "country": "Indonesia"
    },
    {
        "city": "Malausma Kidul",
        "lat": "-7.0440",
        "lng": "108.2513",
        "country": "Indonesia"
    },
    {
        "city": "Jagasari",
        "lat": "-7.0065",
        "lng": "108.3676",
        "country": "Indonesia"
    },
    {
        "city": "Rawa",
        "lat": "-7.0276",
        "lng": "108.3352",
        "country": "Indonesia"
    },
    {
        "city": "Dalamdesa Kalapadua",
        "lat": "-7.0037",
        "lng": "108.2267",
        "country": "Indonesia"
    },
    {
        "city": "Lebakwangi",
        "lat": "-7.0318",
        "lng": "108.2686",
        "country": "Indonesia"
    },
    {
        "city": "Cikijing",
        "lat": "-7.0163",
        "lng": "108.3665",
        "country": "Indonesia"
    },